<?xml version="1.0" encoding="utf-8"?>
<root>
  <DAOStation>
    <Id>38831</Id>
    <Code>38831</Code>
    <Name>בי''ס בר לב/בן יהודה</Name>
    <Longitude>34.917806</Longitude>
    <Latitude>32.183921</Latitude>
    <IsDeleted>False</IsDeleted>
    <IsRunningId>False</IsRunningId>
  </DAOStation>
  <DAOStation>
    <Id>38832</Id>
    <Code>38832</Code>
    <Name>הרצל/צומת בילו</Name>
    <Longitude>34.819541</Longitude>
    <Latitude>31.870034</Latitude>
    <IsDeleted>False</IsDeleted>
    <IsRunningId>False</IsRunningId>
  </DAOStation>
  <DAOStation>
    <Id>38833</Id>
    <Code>38833</Code>
    <Name>הנחשול/הדייגים</Name>
    <Longitude>34.782828</Longitude>
    <Latitude>31.984553</Latitude>
    <IsDeleted>False</IsDeleted>
    <IsRunningId>False</IsRunningId>
  </DAOStation>
  <DAOStation>
    <Id>38834</Id>
    <Code>38834</Code>
    <Name>פריד/ששת הימים</Name>
    <Longitude>34.790904</Longitude>
    <Latitude>31.88855</Latitude>
    <IsDeleted>False</IsDeleted>
    <IsRunningId>False</IsRunningId>
  </DAOStation>
  <DAOStation>
    <Id>38836</Id>
    <Code>38836</Code>
    <Name>ת. מרכזית לוד/הורדה</Name>
    <Longitude>34.898098</Longitude>
    <Latitude>31.956392</Latitude>
    <IsDeleted>False</IsDeleted>
    <IsRunningId>False</IsRunningId>
  </DAOStation>
  <DAOStation>
    <Id>38837</Id>
    <Code>38837</Code>
    <Name>חנה אברך/וולקני</Name>
    <Longitude>34.796071</Longitude>
    <Latitude>31.892166</Latitude>
    <IsDeleted>False</IsDeleted>
    <IsRunningId>False</IsRunningId>
  </DAOStation>
  <DAOStation>
    <Id>38838</Id>
    <Code>38838</Code>
    <Name>הרצל/משה שרת</Name>
    <Longitude>34.824106</Longitude>
    <Latitude>31.857565</Latitude>
    <IsDeleted>False</IsDeleted>
    <IsRunningId>False</IsRunningId>
  </DAOStation>
  <DAOStation>
    <Id>38839</Id>
    <Code>38839</Code>
    <Name>הבנים/אלי כהן</Name>
    <Longitude>34.821857</Longitude>
    <Latitude>31.862305</Latitude>
    <IsDeleted>False</IsDeleted>
    <IsRunningId>False</IsRunningId>
  </DAOStation>
  <DAOStation>
    <Id>38840</Id>
    <Code>38840</Code>
    <Name>ויצמן/הבנים</Name>
    <Longitude>34.822237</Longitude>
    <Latitude>31.865085</Latitude>
    <IsDeleted>False</IsDeleted>
    <IsRunningId>False</IsRunningId>
  </DAOStation>
  <DAOStation>
    <Id>38841</Id>
    <Code>38841</Code>
    <Name>האירוס/הכלנית</Name>
    <Longitude>34.818957</Longitude>
    <Latitude>31.865222</Latitude>
    <IsDeleted>False</IsDeleted>
    <IsRunningId>False</IsRunningId>
  </DAOStation>
  <DAOStation>
    <Id>38842</Id>
    <Code>38842</Code>
    <Name>הכלנית/הנרקיס</Name>
    <Longitude>34.818392</Longitude>
    <Latitude>31.867597</Latitude>
    <IsDeleted>False</IsDeleted>
    <IsRunningId>False</IsRunningId>
  </DAOStation>
  <DAOStation>
    <Id>38844</Id>
    <Code>38844</Code>
    <Name>אלי כהן/לוחמי הגטאות</Name>
    <Longitude>34.827023</Longitude>
    <Latitude>31.86244</Latitude>
    <IsDeleted>False</IsDeleted>
    <IsRunningId>False</IsRunningId>
  </DAOStation>
  <DAOStation>
    <Id>38845</Id>
    <Code>38845</Code>
    <Name>שבזי/שבת אחים</Name>
    <Longitude>34.828702</Longitude>
    <Latitude>31.863501</Latitude>
    <IsDeleted>False</IsDeleted>
    <IsRunningId>False</IsRunningId>
  </DAOStation>
  <DAOStation>
    <Id>38846</Id>
    <Code>38846</Code>
    <Name>שבזי/ויצמן</Name>
    <Longitude>34.827102</Longitude>
    <Latitude>31.865348</Latitude>
    <IsDeleted>False</IsDeleted>
    <IsRunningId>False</IsRunningId>
  </DAOStation>
  <DAOStation>
    <Id>38847</Id>
    <Code>38847</Code>
    <Name>חיים בר לב/שדרות יצחק רבין</Name>
    <Longitude>34.763896</Longitude>
    <Latitude>31.977409</Latitude>
    <IsDeleted>False</IsDeleted>
    <IsRunningId>False</IsRunningId>
  </DAOStation>
  <DAOStation>
    <Id>38848</Id>
    <Code>38848</Code>
    <Name>מרכז לבריאות הנפש לב השרון</Name>
    <Longitude>34.912708</Longitude>
    <Latitude>32.300345</Latitude>
    <IsDeleted>False</IsDeleted>
    <IsRunningId>False</IsRunningId>
  </DAOStation>
  <DAOStation>
    <Id>38849</Id>
    <Code>38849</Code>
    <Name>מרכז לבריאות הנפש לב השרון</Name>
    <Longitude>34.912602</Longitude>
    <Latitude>32.301347</Latitude>
    <IsDeleted>False</IsDeleted>
    <IsRunningId>False</IsRunningId>
  </DAOStation>
  <DAOStation>
    <Id>38852</Id>
    <Code>38852</Code>
    <Name>הולצמן/המדע</Name>
    <Longitude>34.807944</Longitude>
    <Latitude>31.914255</Latitude>
    <IsDeleted>False</IsDeleted>
    <IsRunningId>False</IsRunningId>
  </DAOStation>
  <DAOStation>
    <Id>38854</Id>
    <Code>38854</Code>
    <Name>מחנה צריפין/מועדון</Name>
    <Longitude>34.836363</Longitude>
    <Latitude>31.963668</Latitude>
    <IsDeleted>False</IsDeleted>
    <IsRunningId>False</IsRunningId>
  </DAOStation>
  <DAOStation>
    <Id>38855</Id>
    <Code>38855</Code>
    <Name>הרצל/גולני</Name>
    <Longitude>34.825249</Longitude>
    <Latitude>31.856115</Latitude>
    <IsDeleted>False</IsDeleted>
    <IsRunningId>False</IsRunningId>
  </DAOStation>
  <DAOStation>
    <Id>38856</Id>
    <Code>38856</Code>
    <Name>הרותם/הדגניות</Name>
    <Longitude>34.81249</Longitude>
    <Latitude>31.874963</Latitude>
    <IsDeleted>False</IsDeleted>
    <IsRunningId>False</IsRunningId>
  </DAOStation>
  <DAOStation>
    <Id>38859</Id>
    <Code>38859</Code>
    <Name>הערבה</Name>
    <Longitude>34.910842</Longitude>
    <Latitude>32.300035</Latitude>
    <IsDeleted>False</IsDeleted>
    <IsRunningId>False</IsRunningId>
  </DAOStation>
  <DAOStation>
    <Id>38860</Id>
    <Code>38860</Code>
    <Name>מבוא הגפן/מורד התאנה</Name>
    <Longitude>34.948647</Longitude>
    <Latitude>32.305234</Latitude>
    <IsDeleted>False</IsDeleted>
    <IsRunningId>False</IsRunningId>
  </DAOStation>
  <DAOStation>
    <Id>38861</Id>
    <Code>38861</Code>
    <Name>מבוא הגפן/ההרחבה</Name>
    <Longitude>34.943393</Longitude>
    <Latitude>32.304022</Latitude>
    <IsDeleted>False</IsDeleted>
    <IsRunningId>False</IsRunningId>
  </DAOStation>
  <DAOStation>
    <Id>38862</Id>
    <Code>38862</Code>
    <Name>ההרחבה א</Name>
    <Longitude>34.940529</Longitude>
    <Latitude>32.302957</Latitude>
    <IsDeleted>False</IsDeleted>
    <IsRunningId>False</IsRunningId>
  </DAOStation>
  <DAOStation>
    <Id>38863</Id>
    <Code>38863</Code>
    <Name>ההרחבה ב</Name>
    <Longitude>34.939512</Longitude>
    <Latitude>32.300264</Latitude>
    <IsDeleted>False</IsDeleted>
    <IsRunningId>False</IsRunningId>
  </DAOStation>
  <DAOStation>
    <Id>38864</Id>
    <Code>38864</Code>
    <Name>ההרחבה/הותיקים</Name>
    <Longitude>34.938705</Longitude>
    <Latitude>32.298171</Latitude>
    <IsDeleted>False</IsDeleted>
    <IsRunningId>False</IsRunningId>
  </DAOStation>
  <DAOStation>
    <Id>38865</Id>
    <Code>38865</Code>
    <Name>רשות שדות התעופה/העליה</Name>
    <Longitude>34.8976</Longitude>
    <Latitude>31.990876</Latitude>
    <IsDeleted>False</IsDeleted>
    <IsRunningId>False</IsRunningId>
  </DAOStation>
  <DAOStation>
    <Id>38866</Id>
    <Code>38866</Code>
    <Name>כנף/ברוש</Name>
    <Longitude>34.879725</Longitude>
    <Latitude>31.998767</Latitude>
    <IsDeleted>False</IsDeleted>
    <IsRunningId>False</IsRunningId>
  </DAOStation>
  <DAOStation>
    <Id>38867</Id>
    <Code>38867</Code>
    <Name>החבורה/דב הוז</Name>
    <Longitude>34.818708</Longitude>
    <Latitude>31.883019</Latitude>
    <IsDeleted>False</IsDeleted>
    <IsRunningId>False</IsRunningId>
  </DAOStation>
  <DAOStation>
    <Id>38869</Id>
    <Code>38869</Code>
    <Name>בית הלוי ה</Name>
    <Longitude>34.926837</Longitude>
    <Latitude>32.349776</Latitude>
    <IsDeleted>False</IsDeleted>
    <IsRunningId>False</IsRunningId>
  </DAOStation>
  <DAOStation>
    <Id>38870</Id>
    <Code>38870</Code>
    <Name>הראשונים/כביש 5700</Name>
    <Longitude>34.899465</Longitude>
    <Latitude>32.352953</Latitude>
    <IsDeleted>False</IsDeleted>
    <IsRunningId>False</IsRunningId>
  </DAOStation>
  <DAOStation>
    <Id>38872</Id>
    <Code>38872</Code>
    <Name>הגאון בן איש חי/צאלון</Name>
    <Longitude>34.775083</Longitude>
    <Latitude>31.897286</Latitude>
    <IsDeleted>False</IsDeleted>
    <IsRunningId>False</IsRunningId>
  </DAOStation>
  <DAOStation>
    <Id>38873</Id>
    <Code>38873</Code>
    <Name>עוקשי/לוי אשכול</Name>
    <Longitude>34.807039</Longitude>
    <Latitude>31.883941</Latitude>
    <IsDeleted>False</IsDeleted>
    <IsRunningId>False</IsRunningId>
  </DAOStation>
  <DAOStation>
    <Id>38875</Id>
    <Code>38875</Code>
    <Name>מנוחה ונחלה/יהודה גורודיסקי</Name>
    <Longitude>34.816752</Longitude>
    <Latitude>31.896762</Latitude>
    <IsDeleted>False</IsDeleted>
    <IsRunningId>False</IsRunningId>
  </DAOStation>
  <DAOStation>
    <Id>38876</Id>
    <Code>38876</Code>
    <Name>גורודסקי/יחיאל פלדי</Name>
    <Longitude>34.823461</Longitude>
    <Latitude>31.898463</Latitude>
    <IsDeleted>False</IsDeleted>
    <IsRunningId>False</IsRunningId>
  </DAOStation>
  <DAOStation>
    <Id>38877</Id>
    <Code>38877</Code>
    <Name>דרך מנחם בגין/יעקב חזן</Name>
    <Longitude>34.904907</Longitude>
    <Latitude>32.076535</Latitude>
    <IsDeleted>False</IsDeleted>
    <IsRunningId>False</IsRunningId>
  </DAOStation>
  <DAOStation>
    <Id>38878</Id>
    <Code>38878</Code>
    <Name>דרך הפארק/הרב נריה</Name>
    <Longitude>34.878765</Longitude>
    <Latitude>32.299994</Latitude>
    <IsDeleted>False</IsDeleted>
    <IsRunningId>False</IsRunningId>
  </DAOStation>
  <DAOStation>
    <Id>38879</Id>
    <Code>38879</Code>
    <Name>התאנה/הגפן</Name>
    <Longitude>34.859437</Longitude>
    <Latitude>31.865457</Latitude>
    <IsDeleted>False</IsDeleted>
    <IsRunningId>False</IsRunningId>
  </DAOStation>
  <DAOStation>
    <Id>38880</Id>
    <Code>38880</Code>
    <Name>התאנה/האלון</Name>
    <Longitude>34.864555</Longitude>
    <Latitude>31.866772</Latitude>
    <IsDeleted>False</IsDeleted>
    <IsRunningId>False</IsRunningId>
  </DAOStation>
  <DAOStation>
    <Id>38881</Id>
    <Code>38881</Code>
    <Name>דרך הפרחים/יסמין</Name>
    <Longitude>34.784347</Longitude>
    <Latitude>31.809325</Latitude>
    <IsDeleted>False</IsDeleted>
    <IsRunningId>False</IsRunningId>
  </DAOStation>
  <DAOStation>
    <Id>38883</Id>
    <Code>38883</Code>
    <Name>יצחק רבין/פנחס ספיר</Name>
    <Longitude>34.778239</Longitude>
    <Latitude>31.80037</Latitude>
    <IsDeleted>False</IsDeleted>
    <IsRunningId>False</IsRunningId>
  </DAOStation>
  <DAOStation>
    <Id>38884</Id>
    <Code>38884</Code>
    <Name>מנחם בגין/יצחק רבין</Name>
    <Longitude>34.782985</Longitude>
    <Latitude>31.799224</Latitude>
    <IsDeleted>False</IsDeleted>
    <IsRunningId>False</IsRunningId>
  </DAOStation>
  <DAOStation>
    <Id>38885</Id>
    <Code>38885</Code>
    <Name>חיים הרצוג/דולב</Name>
    <Longitude>34.785069</Longitude>
    <Latitude>31.800334</Latitude>
    <IsDeleted>False</IsDeleted>
    <IsRunningId>False</IsRunningId>
  </DAOStation>
  <DAOStation>
    <Id>38886</Id>
    <Code>38886</Code>
    <Name>בית ספר גוונים/ארז</Name>
    <Longitude>34.786735</Longitude>
    <Latitude>31.802319</Latitude>
    <IsDeleted>False</IsDeleted>
    <IsRunningId>False</IsRunningId>
  </DAOStation>
  <DAOStation>
    <Id>38887</Id>
    <Code>38887</Code>
    <Name>דרך האילנות/אלון</Name>
    <Longitude>34.786623</Longitude>
    <Latitude>31.804595</Latitude>
    <IsDeleted>False</IsDeleted>
    <IsRunningId>False</IsRunningId>
  </DAOStation>
  <DAOStation>
    <Id>38888</Id>
    <Code>38888</Code>
    <Name>דרך האילנות/מנחם בגין</Name>
    <Longitude>34.785098</Longitude>
    <Latitude>31.805041</Latitude>
    <IsDeleted>False</IsDeleted>
    <IsRunningId>False</IsRunningId>
  </DAOStation>
  <DAOStation>
    <Id>38889</Id>
    <Code>38889</Code>
    <Name>העצמאות/וייצמן</Name>
    <Longitude>34.782252</Longitude>
    <Latitude>31.816751</Latitude>
    <IsDeleted>False</IsDeleted>
    <IsRunningId>False</IsRunningId>
  </DAOStation>
  <DAOStation>
    <Id>38890</Id>
    <Code>38890</Code>
    <Name>וייצמן/מרבד הקסמים</Name>
    <Longitude>34.779753</Longitude>
    <Latitude>31.816579</Latitude>
    <IsDeleted>False</IsDeleted>
    <IsRunningId>False</IsRunningId>
  </DAOStation>
  <DAOStation>
    <Id>38891</Id>
    <Code>38891</Code>
    <Name>צאלה/אלמוג</Name>
    <Longitude>34.787199</Longitude>
    <Latitude>31.801182</Latitude>
    <IsDeleted>False</IsDeleted>
    <IsRunningId>False</IsRunningId>
  </DAOStation>
  <DAOStation>
    <Id>38892</Id>
    <Code>38892</Code>
    <Name>גן חצב/צאלה</Name>
    <Longitude>34.786055</Longitude>
    <Latitude>31.802279</Latitude>
    <IsDeleted>False</IsDeleted>
    <IsRunningId>False</IsRunningId>
  </DAOStation>
  <DAOStation>
    <Id>38893</Id>
    <Code>38893</Code>
    <Name>פינס/לוינסון</Name>
    <Longitude>34.777574</Longitude>
    <Latitude>31.814676</Latitude>
    <IsDeleted>False</IsDeleted>
    <IsRunningId>False</IsRunningId>
  </DAOStation>
  <DAOStation>
    <Id>38894</Id>
    <Code>38894</Code>
    <Name>פיינברג/שכביץ</Name>
    <Longitude>34.775928</Longitude>
    <Latitude>31.813285</Latitude>
    <IsDeleted>False</IsDeleted>
    <IsRunningId>False</IsRunningId>
  </DAOStation>
  <DAOStation>
    <Id>38895</Id>
    <Code>38895</Code>
    <Name>בן גוריון/פוקס</Name>
    <Longitude>34.773504</Longitude>
    <Latitude>31.806959</Latitude>
    <IsDeleted>False</IsDeleted>
    <IsRunningId>False</IsRunningId>
  </DAOStation>
  <DAOStation>
    <Id>38898</Id>
    <Code>38898</Code>
    <Name>לוי אשכול/הרב דוד ישראל</Name>
    <Longitude>34.805494</Longitude>
    <Latitude>31.884187</Latitude>
    <IsDeleted>False</IsDeleted>
    <IsRunningId>False</IsRunningId>
  </DAOStation>
  <DAOStation>
    <Id>38899</Id>
    <Code>38899</Code>
    <Name>שושן/אופנהיימר</Name>
    <Longitude>34.805809</Longitude>
    <Latitude>31.910118</Latitude>
    <IsDeleted>False</IsDeleted>
    <IsRunningId>False</IsRunningId>
  </DAOStation>
  <DAOStation>
    <Id>38901</Id>
    <Code>38901</Code>
    <Name>הרב דוד ישראל/אריה דולצין</Name>
    <Longitude>34.80506</Longitude>
    <Latitude>31.882474</Latitude>
    <IsDeleted>False</IsDeleted>
    <IsRunningId>False</IsRunningId>
  </DAOStation>
  <DAOStation>
    <Id>38903</Id>
    <Code>38903</Code>
    <Name>קרוננברג/ארגמן</Name>
    <Longitude>34.81138</Longitude>
    <Latitude>31.878667</Latitude>
    <IsDeleted>False</IsDeleted>
    <IsRunningId>False</IsRunningId>
  </DAOStation>
  <DAOStation>
    <Id>38904</Id>
    <Code>38904</Code>
    <Name>יעקב פריימן/בנימין שמוטקין</Name>
    <Longitude>34.813355</Longitude>
    <Latitude>31.975479</Latitude>
    <IsDeleted>False</IsDeleted>
    <IsRunningId>False</IsRunningId>
  </DAOStation>
  <DAOStation>
    <Id>38905</Id>
    <Code>38905</Code>
    <Name>אנילביץ'/שלום אש</Name>
    <Longitude>34.789445</Longitude>
    <Latitude>31.982177</Latitude>
    <IsDeleted>False</IsDeleted>
    <IsRunningId>False</IsRunningId>
  </DAOStation>
  <DAOStation>
    <Id>38906</Id>
    <Code>38906</Code>
    <Name>נחמיה/בית העלמין</Name>
    <Longitude>34.822422</Longitude>
    <Latitude>31.948552</Latitude>
    <IsDeleted>False</IsDeleted>
    <IsRunningId>False</IsRunningId>
  </DAOStation>
  <DAOStation>
    <Id>38907</Id>
    <Code>38907</Code>
    <Name>יהודה הלוי/יוחנן הסנדלר</Name>
    <Longitude>34.816339</Longitude>
    <Latitude>31.967732</Latitude>
    <IsDeleted>False</IsDeleted>
    <IsRunningId>False</IsRunningId>
  </DAOStation>
  <DAOStation>
    <Id>38908</Id>
    <Code>38908</Code>
    <Name>ההגנה/חי''ש</Name>
    <Longitude>34.824617</Longitude>
    <Latitude>31.893823</Latitude>
    <IsDeleted>False</IsDeleted>
    <IsRunningId>False</IsRunningId>
  </DAOStation>
  <DAOStation>
    <Id>38909</Id>
    <Code>38909</Code>
    <Name>קרית עקרון/כביש 411</Name>
    <Longitude>34.824714</Longitude>
    <Latitude>31.854169</Latitude>
    <IsDeleted>False</IsDeleted>
    <IsRunningId>False</IsRunningId>
  </DAOStation>
  <DAOStation>
    <Id>38910</Id>
    <Code>38910</Code>
    <Name>צומת חולדה/כביש 411</Name>
    <Longitude>34.900793</Longitude>
    <Latitude>31.811907</Latitude>
    <IsDeleted>False</IsDeleted>
    <IsRunningId>False</IsRunningId>
  </DAOStation>
  <DAOStation>
    <Id>38911</Id>
    <Code>38911</Code>
    <Name>גרינשפן/יגאל אלון</Name>
    <Longitude>34.814839</Longitude>
    <Latitude>31.956842</Latitude>
    <IsDeleted>False</IsDeleted>
    <IsRunningId>False</IsRunningId>
  </DAOStation>
  <DAOStation>
    <Id>38912</Id>
    <Code>38912</Code>
    <Name>השומר/האבות</Name>
    <Longitude>34.814747</Longitude>
    <Latitude>31.959821</Latitude>
    <IsDeleted>False</IsDeleted>
    <IsRunningId>False</IsRunningId>
  </DAOStation>
  <DAOStation>
    <Id>38913</Id>
    <Code>38913</Code>
    <Name>משה שרת/יעקב קנר</Name>
    <Longitude>34.75691</Longitude>
    <Latitude>31.992306</Latitude>
    <IsDeleted>False</IsDeleted>
    <IsRunningId>False</IsRunningId>
  </DAOStation>
  <DAOStation>
    <Id>38914</Id>
    <Code>38914</Code>
    <Name>הדייגים/הנחשול</Name>
    <Longitude>34.78262</Longitude>
    <Latitude>31.98497</Latitude>
    <IsDeleted>False</IsDeleted>
    <IsRunningId>False</IsRunningId>
  </DAOStation>
  <DAOStation>
    <Id>38916</Id>
    <Code>38916</Code>
    <Name>יוסף בורג/משואות יצחק</Name>
    <Longitude>34.818099</Longitude>
    <Latitude>31.968049</Latitude>
    <IsDeleted>False</IsDeleted>
    <IsRunningId>False</IsRunningId>
  </DAOStation>
  <DAOStation>
    <Id>38917</Id>
    <Code>38917</Code>
    <Name>יוסף בורג/כתריאל רפפורט</Name>
    <Longitude>34.820043</Longitude>
    <Latitude>31.968936</Latitude>
    <IsDeleted>False</IsDeleted>
    <IsRunningId>False</IsRunningId>
  </DAOStation>
  <DAOStation>
    <Id>38919</Id>
    <Code>38919</Code>
    <Name>וייצמן/דרך יצחק רבין</Name>
    <Longitude>34.798033</Longitude>
    <Latitude>31.923041</Latitude>
    <IsDeleted>False</IsDeleted>
    <IsRunningId>False</IsRunningId>
  </DAOStation>
  <DAOStation>
    <Id>38920</Id>
    <Code>38920</Code>
    <Name>שדרות משה דיין/יוסף לישנסקי</Name>
    <Longitude>34.764014</Longitude>
    <Latitude>31.98568</Latitude>
    <IsDeleted>False</IsDeleted>
    <IsRunningId>False</IsRunningId>
  </DAOStation>
  <DAOStation>
    <Id>38921</Id>
    <Code>38921</Code>
    <Name>השר חיים שפירא/יוסף ספיר</Name>
    <Longitude>34.751999</Longitude>
    <Latitude>31.992583</Latitude>
    <IsDeleted>False</IsDeleted>
    <IsRunningId>False</IsRunningId>
  </DAOStation>
  <DAOStation>
    <Id>38922</Id>
    <Code>38922</Code>
    <Name>השר חיים שפירא/הרב שלום ג'רופי</Name>
    <Longitude>34.755683</Longitude>
    <Latitude>31.990757</Latitude>
    <IsDeleted>False</IsDeleted>
    <IsRunningId>False</IsRunningId>
  </DAOStation>
  <DAOStation>
    <Id>39001</Id>
    <Code>39001</Code>
    <Name>שדרות יעקב/יוסף הנשיא</Name>
    <Longitude>34.819244</Longitude>
    <Latitude>31.950254</Latitude>
    <IsDeleted>False</IsDeleted>
    <IsRunningId>False</IsRunningId>
  </DAOStation>
  <DAOStation>
    <Id>39002</Id>
    <Code>39002</Code>
    <Name>שדרות יעקב/עזרא</Name>
    <Longitude>34.819766</Longitude>
    <Latitude>31.95111</Latitude>
    <IsDeleted>False</IsDeleted>
    <IsRunningId>False</IsRunningId>
  </DAOStation>
  <DAOStation>
    <Id>39004</Id>
    <Code>39004</Code>
    <Name>לייב יוספזון/יעקב ברמן</Name>
    <Longitude>34.818909</Longitude>
    <Latitude>31.905052</Latitude>
    <IsDeleted>False</IsDeleted>
    <IsRunningId>False</IsRunningId>
  </DAOStation>
  <DAOStation>
    <Id>39005</Id>
    <Code>39005</Code>
    <Name>הרב יעקב ברמן/הרב יהודה צבי מלצר</Name>
    <Longitude>34.819443</Longitude>
    <Latitude>31.901879</Latitude>
    <IsDeleted>False</IsDeleted>
    <IsRunningId>False</IsRunningId>
  </DAOStation>
  <DAOStation>
    <Id>39006</Id>
    <Code>39006</Code>
    <Name>ברמן/מלצר</Name>
    <Longitude>34.818922</Longitude>
    <Latitude>31.90281</Latitude>
    <IsDeleted>False</IsDeleted>
    <IsRunningId>False</IsRunningId>
  </DAOStation>
  <DAOStation>
    <Id>39007</Id>
    <Code>39007</Code>
    <Name>הנשיא הראשון/מכון ויצמן</Name>
    <Longitude>34.815296</Longitude>
    <Latitude>31.904567</Latitude>
    <IsDeleted>False</IsDeleted>
    <IsRunningId>False</IsRunningId>
  </DAOStation>
  <DAOStation>
    <Id>39008</Id>
    <Code>39008</Code>
    <Name>הנשיא הראשון/קיפניס</Name>
    <Longitude>34.816661</Longitude>
    <Latitude>31.904755</Latitude>
    <IsDeleted>False</IsDeleted>
    <IsRunningId>False</IsRunningId>
  </DAOStation>
  <DAOStation>
    <Id>39012</Id>
    <Code>39012</Code>
    <Name>הירדן/הערבה</Name>
    <Longitude>34.838609</Longitude>
    <Latitude>31.937387</Latitude>
    <IsDeleted>False</IsDeleted>
    <IsRunningId>False</IsRunningId>
  </DAOStation>
  <DAOStation>
    <Id>39013</Id>
    <Code>39013</Code>
    <Name>הירדן/חרוד</Name>
    <Longitude>34.838341</Longitude>
    <Latitude>31.936925</Latitude>
    <IsDeleted>False</IsDeleted>
    <IsRunningId>False</IsRunningId>
  </DAOStation>
  <DAOStation>
    <Id>39014</Id>
    <Code>39014</Code>
    <Name>האלונים/הדקל</Name>
    <Longitude>34.831964</Longitude>
    <Latitude>31.939037</Latitude>
    <IsDeleted>False</IsDeleted>
    <IsRunningId>False</IsRunningId>
  </DAOStation>
  <DAOStation>
    <Id>39017</Id>
    <Code>39017</Code>
    <Name>האלונים א/הדקל</Name>
    <Longitude>34.832104</Longitude>
    <Latitude>31.939656</Latitude>
    <IsDeleted>False</IsDeleted>
    <IsRunningId>False</IsRunningId>
  </DAOStation>
  <DAOStation>
    <Id>39018</Id>
    <Code>39018</Code>
    <Name>פארק תעשיות שילת</Name>
    <Longitude>35.023589</Longitude>
    <Latitude>31.914324</Latitude>
    <IsDeleted>False</IsDeleted>
    <IsRunningId>False</IsRunningId>
  </DAOStation>
  <DAOStation>
    <Id>39019</Id>
    <Code>39019</Code>
    <Name>פארק תעשיות שילת</Name>
    <Longitude>35.023028</Longitude>
    <Latitude>31.914816</Latitude>
    <IsDeleted>False</IsDeleted>
    <IsRunningId>False</IsRunningId>
  </DAOStation>
  <DAOStation>
    <Id>39024</Id>
    <Code>39024</Code>
    <Name>עיריית מודיעין מכבים רעות</Name>
    <Longitude>35.007955</Longitude>
    <Latitude>31.908499</Latitude>
    <IsDeleted>False</IsDeleted>
    <IsRunningId>False</IsRunningId>
  </DAOStation>
  <DAOStation>
    <Id>39028</Id>
    <Code>39028</Code>
    <Name>חיים ברלב/מרדכי מקלף</Name>
    <Longitude>35.000614</Longitude>
    <Latitude>31.907828</Latitude>
    <IsDeleted>False</IsDeleted>
    <IsRunningId>False</IsRunningId>
  </DAOStation>
  <DAOStation>
    <Id>39029</Id>
    <Code>39029</Code>
    <Name>חיים ברלב/מרדכי מקלף</Name>
    <Longitude>35.000816</Longitude>
    <Latitude>31.907603</Latitude>
    <IsDeleted>False</IsDeleted>
    <IsRunningId>False</IsRunningId>
  </DAOStation>
  <DAOStation>
    <Id>39035</Id>
    <Code>39035</Code>
    <Name>אלמוג סנטר/אפרים קישון</Name>
    <Longitude>34.843114</Longitude>
    <Latitude>31.941611</Latitude>
    <IsDeleted>False</IsDeleted>
    <IsRunningId>False</IsRunningId>
  </DAOStation>
  <DAOStation>
    <Id>39039</Id>
    <Code>39039</Code>
    <Name>גן חק''ל/רבאט</Name>
    <Longitude>34.884936</Longitude>
    <Latitude>31.931068</Latitude>
    <IsDeleted>False</IsDeleted>
    <IsRunningId>False</IsRunningId>
  </DAOStation>
  <DAOStation>
    <Id>39040</Id>
    <Code>39040</Code>
    <Name>גן חק''ל/רבאט</Name>
    <Longitude>34.884956</Longitude>
    <Latitude>31.931204</Latitude>
    <IsDeleted>False</IsDeleted>
    <IsRunningId>False</IsRunningId>
  </DAOStation>
  <DAOStation>
    <Id>39041</Id>
    <Code>39041</Code>
    <Name>קניון צ. רמלה לוד/דוכיפת</Name>
    <Longitude>34.887207</Longitude>
    <Latitude>31.933379</Latitude>
    <IsDeleted>False</IsDeleted>
    <IsRunningId>False</IsRunningId>
  </DAOStation>
  <DAOStation>
    <Id>39042</Id>
    <Code>39042</Code>
    <Name>היצירה/התקווה</Name>
    <Longitude>34.880069</Longitude>
    <Latitude>31.929318</Latitude>
    <IsDeleted>False</IsDeleted>
    <IsRunningId>False</IsRunningId>
  </DAOStation>
  <DAOStation>
    <Id>39043</Id>
    <Code>39043</Code>
    <Name>היצירה/התקווה</Name>
    <Longitude>34.879993</Longitude>
    <Latitude>31.929199</Latitude>
    <IsDeleted>False</IsDeleted>
    <IsRunningId>False</IsRunningId>
  </DAOStation>
  <DAOStation>
    <Id>39044</Id>
    <Code>39044</Code>
    <Name>עמל/היצירה</Name>
    <Longitude>34.881442</Longitude>
    <Latitude>31.932402</Latitude>
    <IsDeleted>False</IsDeleted>
    <IsRunningId>False</IsRunningId>
  </DAOStation>
  <DAOStation>
    <Id>39049</Id>
    <Code>39049</Code>
    <Name>פרנקל/ויתקין</Name>
    <Longitude>34.864906</Longitude>
    <Latitude>31.936159</Latitude>
    <IsDeleted>False</IsDeleted>
    <IsRunningId>False</IsRunningId>
  </DAOStation>
  <DAOStation>
    <Id>39050</Id>
    <Code>39050</Code>
    <Name>פרנקל/ויתקין</Name>
    <Longitude>34.86495</Longitude>
    <Latitude>31.936022</Latitude>
    <IsDeleted>False</IsDeleted>
    <IsRunningId>False</IsRunningId>
  </DAOStation>
  <DAOStation>
    <Id>39051</Id>
    <Code>39051</Code>
    <Name>ישראל פרנקל/דוב הוז</Name>
    <Longitude>34.863972</Longitude>
    <Latitude>31.935488</Latitude>
    <IsDeleted>False</IsDeleted>
    <IsRunningId>False</IsRunningId>
  </DAOStation>
  <DAOStation>
    <Id>39052</Id>
    <Code>39052</Code>
    <Name>יוספטל/הדס</Name>
    <Longitude>34.857638</Longitude>
    <Latitude>31.936109</Latitude>
    <IsDeleted>False</IsDeleted>
    <IsRunningId>False</IsRunningId>
  </DAOStation>
  <DAOStation>
    <Id>39056</Id>
    <Code>39056</Code>
    <Name>אהרון בוגנים/משה שרת</Name>
    <Longitude>34.853906</Longitude>
    <Latitude>31.933413</Latitude>
    <IsDeleted>False</IsDeleted>
    <IsRunningId>False</IsRunningId>
  </DAOStation>
  <DAOStation>
    <Id>39057</Id>
    <Code>39057</Code>
    <Name>גרשון ש''ץ/שמחה הולצברג</Name>
    <Longitude>34.853223</Longitude>
    <Latitude>31.932532</Latitude>
    <IsDeleted>False</IsDeleted>
    <IsRunningId>False</IsRunningId>
  </DAOStation>
  <DAOStation>
    <Id>39058</Id>
    <Code>39058</Code>
    <Name>הולצברג/שץ</Name>
    <Longitude>34.853149</Longitude>
    <Latitude>31.93166</Latitude>
    <IsDeleted>False</IsDeleted>
    <IsRunningId>False</IsRunningId>
  </DAOStation>
  <DAOStation>
    <Id>39059</Id>
    <Code>39059</Code>
    <Name>אשכול/הרב שפירא</Name>
    <Longitude>34.857194</Longitude>
    <Latitude>31.929827</Latitude>
    <IsDeleted>False</IsDeleted>
    <IsRunningId>False</IsRunningId>
  </DAOStation>
  <DAOStation>
    <Id>39060</Id>
    <Code>39060</Code>
    <Name>יהודה שטיין/קרן היסוד</Name>
    <Longitude>34.855866</Longitude>
    <Latitude>31.926545</Latitude>
    <IsDeleted>False</IsDeleted>
    <IsRunningId>False</IsRunningId>
  </DAOStation>
  <DAOStation>
    <Id>39066</Id>
    <Code>39066</Code>
    <Name>שמשון הגיבור/המסגד</Name>
    <Longitude>34.866014</Longitude>
    <Latitude>31.926441</Latitude>
    <IsDeleted>False</IsDeleted>
    <IsRunningId>False</IsRunningId>
  </DAOStation>
  <DAOStation>
    <Id>39068</Id>
    <Code>39068</Code>
    <Name>ביאליק/חניתה</Name>
    <Longitude>34.870366</Longitude>
    <Latitude>31.924484</Latitude>
    <IsDeleted>False</IsDeleted>
    <IsRunningId>False</IsRunningId>
  </DAOStation>
  <DAOStation>
    <Id>39069</Id>
    <Code>39069</Code>
    <Name>ביאליק/ירמיהו</Name>
    <Longitude>34.868205</Longitude>
    <Latitude>31.92055</Latitude>
    <IsDeleted>False</IsDeleted>
    <IsRunningId>False</IsRunningId>
  </DAOStation>
  <DAOStation>
    <Id>39070</Id>
    <Code>39070</Code>
    <Name>א.ס לוי/סעדיה מרדכי</Name>
    <Longitude>34.861221</Longitude>
    <Latitude>31.9209</Latitude>
    <IsDeleted>False</IsDeleted>
    <IsRunningId>False</IsRunningId>
  </DAOStation>
  <DAOStation>
    <Id>39071</Id>
    <Code>39071</Code>
    <Name>רזיאל/זכריה</Name>
    <Longitude>34.862813</Longitude>
    <Latitude>31.923666</Latitude>
    <IsDeleted>False</IsDeleted>
    <IsRunningId>False</IsRunningId>
  </DAOStation>
  <DAOStation>
    <Id>39072</Id>
    <Code>39072</Code>
    <Name>חרוד א</Name>
    <Longitude>34.850134</Longitude>
    <Latitude>31.912572</Latitude>
    <IsDeleted>False</IsDeleted>
    <IsRunningId>False</IsRunningId>
  </DAOStation>
  <DAOStation>
    <Id>39073</Id>
    <Code>39073</Code>
    <Name>חרוד/הירדן</Name>
    <Longitude>34.848217</Longitude>
    <Latitude>31.915977</Latitude>
    <IsDeleted>False</IsDeleted>
    <IsRunningId>False</IsRunningId>
  </DAOStation>
  <DAOStation>
    <Id>39075</Id>
    <Code>39075</Code>
    <Name>הירדן/דן</Name>
    <Longitude>34.852139</Longitude>
    <Latitude>31.915489</Latitude>
    <IsDeleted>False</IsDeleted>
    <IsRunningId>False</IsRunningId>
  </DAOStation>
  <DAOStation>
    <Id>39076</Id>
    <Code>39076</Code>
    <Name>עוזי חיטמן/שושנה דמארי</Name>
    <Longitude>34.868261</Longitude>
    <Latitude>31.917022</Latitude>
    <IsDeleted>False</IsDeleted>
    <IsRunningId>False</IsRunningId>
  </DAOStation>
  <DAOStation>
    <Id>39077</Id>
    <Code>39077</Code>
    <Name>עוזי חיטמן/דליה רביקוביץ</Name>
    <Longitude>34.870995</Longitude>
    <Latitude>31.918782</Latitude>
    <IsDeleted>False</IsDeleted>
    <IsRunningId>False</IsRunningId>
  </DAOStation>
  <DAOStation>
    <Id>39078</Id>
    <Code>39078</Code>
    <Name>עוזי חיטמן/חנוך לוין</Name>
    <Longitude>34.873447</Longitude>
    <Latitude>31.918696</Latitude>
    <IsDeleted>False</IsDeleted>
    <IsRunningId>False</IsRunningId>
  </DAOStation>
  <DAOStation>
    <Id>39079</Id>
    <Code>39079</Code>
    <Name>אהוד מנור/חיטמן</Name>
    <Longitude>34.874461</Longitude>
    <Latitude>31.916945</Latitude>
    <IsDeleted>False</IsDeleted>
    <IsRunningId>False</IsRunningId>
  </DAOStation>
  <DAOStation>
    <Id>39080</Id>
    <Code>39080</Code>
    <Name>שושנה דמארי/אהוד מנור</Name>
    <Longitude>34.872134</Longitude>
    <Latitude>31.916141</Latitude>
    <IsDeleted>False</IsDeleted>
    <IsRunningId>False</IsRunningId>
  </DAOStation>
  <DAOStation>
    <Id>39081</Id>
    <Code>39081</Code>
    <Name>שושנה דמארי/אהוד מנור</Name>
    <Longitude>34.873652</Longitude>
    <Latitude>31.916235</Latitude>
    <IsDeleted>False</IsDeleted>
    <IsRunningId>False</IsRunningId>
  </DAOStation>
  <DAOStation>
    <Id>39082</Id>
    <Code>39082</Code>
    <Name>אהוד מנור/עוזי חיטמן</Name>
    <Longitude>34.874646</Longitude>
    <Latitude>31.917837</Latitude>
    <IsDeleted>False</IsDeleted>
    <IsRunningId>False</IsRunningId>
  </DAOStation>
  <DAOStation>
    <Id>39083</Id>
    <Code>39083</Code>
    <Name>עוזי חיטמן/שושנה דמארי</Name>
    <Longitude>34.868374</Longitude>
    <Latitude>31.917072</Latitude>
    <IsDeleted>False</IsDeleted>
    <IsRunningId>False</IsRunningId>
  </DAOStation>
  <DAOStation>
    <Id>39086</Id>
    <Code>39086</Code>
    <Name>דרך האורנים/ברוש</Name>
    <Longitude>35.016294</Longitude>
    <Latitude>31.92072</Latitude>
    <IsDeleted>False</IsDeleted>
    <IsRunningId>False</IsRunningId>
  </DAOStation>
  <DAOStation>
    <Id>39087</Id>
    <Code>39087</Code>
    <Name>שקד/האורנים</Name>
    <Longitude>35.01438</Longitude>
    <Latitude>31.922468</Latitude>
    <IsDeleted>False</IsDeleted>
    <IsRunningId>False</IsRunningId>
  </DAOStation>
  <DAOStation>
    <Id>39088</Id>
    <Code>39088</Code>
    <Name>דרך החרוב/גפן</Name>
    <Longitude>35.020017</Longitude>
    <Latitude>31.919711</Latitude>
    <IsDeleted>False</IsDeleted>
    <IsRunningId>False</IsRunningId>
  </DAOStation>
  <DAOStation>
    <Id>39089</Id>
    <Code>39089</Code>
    <Name>דרך החרוב/גפן</Name>
    <Longitude>35.019979</Longitude>
    <Latitude>31.919795</Latitude>
    <IsDeleted>False</IsDeleted>
    <IsRunningId>False</IsRunningId>
  </DAOStation>
  <DAOStation>
    <Id>39090</Id>
    <Code>39090</Code>
    <Name>החרוב א</Name>
    <Longitude>35.02323</Longitude>
    <Latitude>31.919163</Latitude>
    <IsDeleted>False</IsDeleted>
    <IsRunningId>False</IsRunningId>
  </DAOStation>
  <DAOStation>
    <Id>39091</Id>
    <Code>39091</Code>
    <Name>החרוב א</Name>
    <Longitude>35.0234</Longitude>
    <Latitude>31.919207</Latitude>
    <IsDeleted>False</IsDeleted>
    <IsRunningId>False</IsRunningId>
  </DAOStation>
  <DAOStation>
    <Id>39092</Id>
    <Code>39092</Code>
    <Name>כפר רות</Name>
    <Longitude>35.034349</Longitude>
    <Latitude>31.910544</Latitude>
    <IsDeleted>False</IsDeleted>
    <IsRunningId>False</IsRunningId>
  </DAOStation>
  <DAOStation>
    <Id>39093</Id>
    <Code>39093</Code>
    <Name>כפר רות</Name>
    <Longitude>35.034441</Longitude>
    <Latitude>31.910485</Latitude>
    <IsDeleted>False</IsDeleted>
    <IsRunningId>False</IsRunningId>
  </DAOStation>
  <DAOStation>
    <Id>39100</Id>
    <Code>39100</Code>
    <Name>החוף הירוק</Name>
    <Longitude>34.837598</Longitude>
    <Latitude>32.270586</Latitude>
    <IsDeleted>False</IsDeleted>
    <IsRunningId>False</IsRunningId>
  </DAOStation>
  <DAOStation>
    <Id>39101</Id>
    <Code>39101</Code>
    <Name>רמת פולג</Name>
    <Longitude>34.838726</Longitude>
    <Latitude>32.272632</Latitude>
    <IsDeleted>False</IsDeleted>
    <IsRunningId>False</IsRunningId>
  </DAOStation>
  <DAOStation>
    <Id>39102</Id>
    <Code>39102</Code>
    <Name>רמת פולג</Name>
    <Longitude>34.838508</Longitude>
    <Latitude>32.27242</Latitude>
    <IsDeleted>False</IsDeleted>
    <IsRunningId>False</IsRunningId>
  </DAOStation>
  <DAOStation>
    <Id>39103</Id>
    <Code>39103</Code>
    <Name>אהוד מנור/מנחם בגין</Name>
    <Longitude>34.8413</Longitude>
    <Latitude>32.274543</Latitude>
    <IsDeleted>False</IsDeleted>
    <IsRunningId>False</IsRunningId>
  </DAOStation>
  <DAOStation>
    <Id>39104</Id>
    <Code>39104</Code>
    <Name>אהוד מנור/מנחם בגין</Name>
    <Longitude>34.842868</Longitude>
    <Latitude>32.27487</Latitude>
    <IsDeleted>False</IsDeleted>
    <IsRunningId>False</IsRunningId>
  </DAOStation>
  <DAOStation>
    <Id>39105</Id>
    <Code>39105</Code>
    <Name>שזר\אמנון ותמר</Name>
    <Longitude>34.845201</Longitude>
    <Latitude>32.27572</Latitude>
    <IsDeleted>False</IsDeleted>
    <IsRunningId>False</IsRunningId>
  </DAOStation>
  <DAOStation>
    <Id>39106</Id>
    <Code>39106</Code>
    <Name>זלמן שז''ר/אמנון ותמר</Name>
    <Longitude>34.846404</Longitude>
    <Latitude>32.276562</Latitude>
    <IsDeleted>False</IsDeleted>
    <IsRunningId>False</IsRunningId>
  </DAOStation>
  <DAOStation>
    <Id>39107</Id>
    <Code>39107</Code>
    <Name>אמנון ותמר/זלמן שז''ר</Name>
    <Longitude>34.847509</Longitude>
    <Latitude>32.276837</Latitude>
    <IsDeleted>False</IsDeleted>
    <IsRunningId>False</IsRunningId>
  </DAOStation>
  <DAOStation>
    <Id>39108</Id>
    <Code>39108</Code>
    <Name>אודם\שהם</Name>
    <Longitude>34.864843</Longitude>
    <Latitude>32.256581</Latitude>
    <IsDeleted>False</IsDeleted>
    <IsRunningId>False</IsRunningId>
  </DAOStation>
  <DAOStation>
    <Id>39109</Id>
    <Code>39109</Code>
    <Name>שדרות גולדה מאיר/משעול קיפניס</Name>
    <Longitude>34.85165</Longitude>
    <Latitude>32.27659</Latitude>
    <IsDeleted>False</IsDeleted>
    <IsRunningId>False</IsRunningId>
  </DAOStation>
  <DAOStation>
    <Id>39110</Id>
    <Code>39110</Code>
    <Name>צומת אביר/כביש 553</Name>
    <Longitude>34.856933</Longitude>
    <Latitude>32.272698</Latitude>
    <IsDeleted>False</IsDeleted>
    <IsRunningId>False</IsRunningId>
  </DAOStation>
  <DAOStation>
    <Id>39111</Id>
    <Code>39111</Code>
    <Name>יהלום/ספיר</Name>
    <Longitude>34.863096</Longitude>
    <Latitude>32.261931</Latitude>
    <IsDeleted>False</IsDeleted>
    <IsRunningId>False</IsRunningId>
  </DAOStation>
  <DAOStation>
    <Id>39112</Id>
    <Code>39112</Code>
    <Name>יהלום/שני</Name>
    <Longitude>34.862627</Longitude>
    <Latitude>32.264446</Latitude>
    <IsDeleted>False</IsDeleted>
    <IsRunningId>False</IsRunningId>
  </DAOStation>
  <DAOStation>
    <Id>39113</Id>
    <Code>39113</Code>
    <Name>מזכירות</Name>
    <Longitude>34.864793</Longitude>
    <Latitude>32.260481</Latitude>
    <IsDeleted>False</IsDeleted>
    <IsRunningId>False</IsRunningId>
  </DAOStation>
  <DAOStation>
    <Id>39114</Id>
    <Code>39114</Code>
    <Name>האורזים/האר''י</Name>
    <Longitude>34.869559</Longitude>
    <Latitude>32.312257</Latitude>
    <IsDeleted>False</IsDeleted>
    <IsRunningId>False</IsRunningId>
  </DAOStation>
  <DAOStation>
    <Id>39115</Id>
    <Code>39115</Code>
    <Name>איקאה/שדרות גיבורי ישראל</Name>
    <Longitude>34.858842</Longitude>
    <Latitude>32.274579</Latitude>
    <IsDeleted>False</IsDeleted>
    <IsRunningId>False</IsRunningId>
  </DAOStation>
  <DAOStation>
    <Id>39117</Id>
    <Code>39117</Code>
    <Name>שד. עובד בן עמי/קהילת צפת</Name>
    <Longitude>34.84364</Longitude>
    <Latitude>32.306182</Latitude>
    <IsDeleted>False</IsDeleted>
    <IsRunningId>False</IsRunningId>
  </DAOStation>
  <DAOStation>
    <Id>39118</Id>
    <Code>39118</Code>
    <Name>אירוס הארגמן/חבצלת החוף</Name>
    <Longitude>34.844815</Longitude>
    <Latitude>32.285717</Latitude>
    <IsDeleted>False</IsDeleted>
    <IsRunningId>False</IsRunningId>
  </DAOStation>
  <DAOStation>
    <Id>39119</Id>
    <Code>39119</Code>
    <Name>זלמן שז''ר/שד. בן גוריון</Name>
    <Longitude>34.848946</Longitude>
    <Latitude>32.277813</Latitude>
    <IsDeleted>False</IsDeleted>
    <IsRunningId>False</IsRunningId>
  </DAOStation>
  <DAOStation>
    <Id>39120</Id>
    <Code>39120</Code>
    <Name>חבצלת החוף/אירוס הארגמן</Name>
    <Longitude>34.846795</Longitude>
    <Latitude>32.284726</Latitude>
    <IsDeleted>False</IsDeleted>
    <IsRunningId>False</IsRunningId>
  </DAOStation>
  <DAOStation>
    <Id>39121</Id>
    <Code>39121</Code>
    <Name>שניאור/בן גוריון</Name>
    <Longitude>34.847761</Longitude>
    <Latitude>32.282745</Latitude>
    <IsDeleted>False</IsDeleted>
    <IsRunningId>False</IsRunningId>
  </DAOStation>
  <DAOStation>
    <Id>39122</Id>
    <Code>39122</Code>
    <Name>זלמן שניאור/אריה לייב יפה</Name>
    <Longitude>34.847562</Longitude>
    <Latitude>32.282812</Latitude>
    <IsDeleted>False</IsDeleted>
    <IsRunningId>False</IsRunningId>
  </DAOStation>
  <DAOStation>
    <Id>39123</Id>
    <Code>39123</Code>
    <Name>ש''י עגנון/קרן היסוד</Name>
    <Longitude>34.84922</Longitude>
    <Latitude>32.282979</Latitude>
    <IsDeleted>False</IsDeleted>
    <IsRunningId>False</IsRunningId>
  </DAOStation>
  <DAOStation>
    <Id>39124</Id>
    <Code>39124</Code>
    <Name>ש''י עגנון/קרן היסוד</Name>
    <Longitude>34.849395</Longitude>
    <Latitude>32.283021</Latitude>
    <IsDeleted>False</IsDeleted>
    <IsRunningId>False</IsRunningId>
  </DAOStation>
  <DAOStation>
    <Id>39125</Id>
    <Code>39125</Code>
    <Name>גבעת האירוסים/אירוס הארגמן</Name>
    <Longitude>34.846117</Longitude>
    <Latitude>32.287046</Latitude>
    <IsDeleted>False</IsDeleted>
    <IsRunningId>False</IsRunningId>
  </DAOStation>
  <DAOStation>
    <Id>39126</Id>
    <Code>39126</Code>
    <Name>חבצלת החוף/אירוס הארגמן</Name>
    <Longitude>34.848222</Longitude>
    <Latitude>32.286259</Latitude>
    <IsDeleted>False</IsDeleted>
    <IsRunningId>False</IsRunningId>
  </DAOStation>
  <DAOStation>
    <Id>39127</Id>
    <Code>39127</Code>
    <Name>הבריגדה היהודית/החפץ חיים</Name>
    <Longitude>34.844671</Longitude>
    <Latitude>32.296835</Latitude>
    <IsDeleted>False</IsDeleted>
    <IsRunningId>False</IsRunningId>
  </DAOStation>
  <DAOStation>
    <Id>39128</Id>
    <Code>39128</Code>
    <Name>שד. בן גוריון/שמחה ארליך</Name>
    <Longitude>34.844687</Longitude>
    <Latitude>32.300631</Latitude>
    <IsDeleted>False</IsDeleted>
    <IsRunningId>False</IsRunningId>
  </DAOStation>
  <DAOStation>
    <Id>39129</Id>
    <Code>39129</Code>
    <Name>דוד רזניק/החפץ חיים</Name>
    <Longitude>34.845476</Longitude>
    <Latitude>32.295287</Latitude>
    <IsDeleted>False</IsDeleted>
    <IsRunningId>False</IsRunningId>
  </DAOStation>
  <DAOStation>
    <Id>39130</Id>
    <Code>39130</Code>
    <Name>לוי אשכול/יעקב דורי</Name>
    <Longitude>34.846977</Longitude>
    <Latitude>32.296581</Latitude>
    <IsDeleted>False</IsDeleted>
    <IsRunningId>False</IsRunningId>
  </DAOStation>
  <DAOStation>
    <Id>39131</Id>
    <Code>39131</Code>
    <Name>אריה מוצקין/ד''ר סטופ</Name>
    <Longitude>34.848266</Longitude>
    <Latitude>32.296783</Latitude>
    <IsDeleted>False</IsDeleted>
    <IsRunningId>False</IsRunningId>
  </DAOStation>
  <DAOStation>
    <Id>39132</Id>
    <Code>39132</Code>
    <Name>אריה מוצקין/ד''ר סטופ</Name>
    <Longitude>34.848792</Longitude>
    <Latitude>32.29704</Latitude>
    <IsDeleted>False</IsDeleted>
    <IsRunningId>False</IsRunningId>
  </DAOStation>
  <DAOStation>
    <Id>39133</Id>
    <Code>39133</Code>
    <Name>הבריגדה היהודית/חיים ברלב</Name>
    <Longitude>34.845308</Longitude>
    <Latitude>32.298042</Latitude>
    <IsDeleted>False</IsDeleted>
    <IsRunningId>False</IsRunningId>
  </DAOStation>
  <DAOStation>
    <Id>39134</Id>
    <Code>39134</Code>
    <Name>בלומנפלד/יעקב דורי</Name>
    <Longitude>34.846832</Longitude>
    <Latitude>32.298675</Latitude>
    <IsDeleted>False</IsDeleted>
    <IsRunningId>False</IsRunningId>
  </DAOStation>
  <DAOStation>
    <Id>39135</Id>
    <Code>39135</Code>
    <Name>שדרות בן גוריון/שמחה ארליך</Name>
    <Longitude>34.846765</Longitude>
    <Latitude>32.299915</Latitude>
    <IsDeleted>False</IsDeleted>
    <IsRunningId>False</IsRunningId>
  </DAOStation>
  <DAOStation>
    <Id>39136</Id>
    <Code>39136</Code>
    <Name>לוי אשכול/יעקב דורי</Name>
    <Longitude>34.848019</Longitude>
    <Latitude>32.298453</Latitude>
    <IsDeleted>False</IsDeleted>
    <IsRunningId>False</IsRunningId>
  </DAOStation>
  <DAOStation>
    <Id>39138</Id>
    <Code>39138</Code>
    <Name>אריה מוצקין/שמחה ארליך</Name>
    <Longitude>34.849289</Longitude>
    <Latitude>32.299316</Latitude>
    <IsDeleted>False</IsDeleted>
    <IsRunningId>False</IsRunningId>
  </DAOStation>
  <DAOStation>
    <Id>39139</Id>
    <Code>39139</Code>
    <Name>בן עמי/שמחה ארליך</Name>
    <Longitude>34.843196</Longitude>
    <Latitude>32.302867</Latitude>
    <IsDeleted>False</IsDeleted>
    <IsRunningId>False</IsRunningId>
  </DAOStation>
  <DAOStation>
    <Id>39141</Id>
    <Code>39141</Code>
    <Name>בית ספר אלדד/שדרות גולדה מאיר</Name>
    <Longitude>34.854475</Longitude>
    <Latitude>32.276979</Latitude>
    <IsDeleted>False</IsDeleted>
    <IsRunningId>False</IsRunningId>
  </DAOStation>
  <DAOStation>
    <Id>39142</Id>
    <Code>39142</Code>
    <Name>בן עמי/קהילת צפת</Name>
    <Longitude>34.842963</Longitude>
    <Latitude>32.3052</Latitude>
    <IsDeleted>False</IsDeleted>
    <IsRunningId>False</IsRunningId>
  </DAOStation>
  <DAOStation>
    <Id>39144</Id>
    <Code>39144</Code>
    <Name>'נאות גולדה א</Name>
    <Longitude>34.851875</Longitude>
    <Latitude>32.277828</Latitude>
    <IsDeleted>False</IsDeleted>
    <IsRunningId>False</IsRunningId>
  </DAOStation>
  <DAOStation>
    <Id>39145</Id>
    <Code>39145</Code>
    <Name>'נאות גולדה ב</Name>
    <Longitude>34.85214</Longitude>
    <Latitude>32.278509</Latitude>
    <IsDeleted>False</IsDeleted>
    <IsRunningId>False</IsRunningId>
  </DAOStation>
  <DAOStation>
    <Id>39146</Id>
    <Code>39146</Code>
    <Name>נאות גולדה\חזני</Name>
    <Longitude>34.852186</Longitude>
    <Latitude>32.278717</Latitude>
    <IsDeleted>False</IsDeleted>
    <IsRunningId>False</IsRunningId>
  </DAOStation>
  <DAOStation>
    <Id>39147</Id>
    <Code>39147</Code>
    <Name>פנקס/57</Name>
    <Longitude>34.874761</Longitude>
    <Latitude>32.323511</Latitude>
    <IsDeleted>False</IsDeleted>
    <IsRunningId>False</IsRunningId>
  </DAOStation>
  <DAOStation>
    <Id>39148</Id>
    <Code>39148</Code>
    <Name>ש''י עגנון/יאנוש קורצ'אק</Name>
    <Longitude>34.851721</Longitude>
    <Latitude>32.280743</Latitude>
    <IsDeleted>False</IsDeleted>
    <IsRunningId>False</IsRunningId>
  </DAOStation>
  <DAOStation>
    <Id>39149</Id>
    <Code>39149</Code>
    <Name>רופין/שד. פנחס לבון</Name>
    <Longitude>34.852967</Longitude>
    <Latitude>32.280794</Latitude>
    <IsDeleted>False</IsDeleted>
    <IsRunningId>False</IsRunningId>
  </DAOStation>
  <DAOStation>
    <Id>39150</Id>
    <Code>39150</Code>
    <Name>ש''י עגנון/יצחק אפשטיין</Name>
    <Longitude>34.850372</Longitude>
    <Latitude>32.281577</Latitude>
    <IsDeleted>False</IsDeleted>
    <IsRunningId>False</IsRunningId>
  </DAOStation>
  <DAOStation>
    <Id>39151</Id>
    <Code>39151</Code>
    <Name>ש''י עגנון/יצחק אפשטיין</Name>
    <Longitude>34.850746</Longitude>
    <Latitude>32.281435</Latitude>
    <IsDeleted>False</IsDeleted>
    <IsRunningId>False</IsRunningId>
  </DAOStation>
  <DAOStation>
    <Id>39152</Id>
    <Code>39152</Code>
    <Name>זלמן שניאור/ש''י עגנון</Name>
    <Longitude>34.849358</Longitude>
    <Latitude>32.283894</Latitude>
    <IsDeleted>False</IsDeleted>
    <IsRunningId>False</IsRunningId>
  </DAOStation>
  <DAOStation>
    <Id>39153</Id>
    <Code>39153</Code>
    <Name>לבון/עגנון</Name>
    <Longitude>34.853363</Longitude>
    <Latitude>32.282133</Latitude>
    <IsDeleted>False</IsDeleted>
    <IsRunningId>False</IsRunningId>
  </DAOStation>
  <DAOStation>
    <Id>39154</Id>
    <Code>39154</Code>
    <Name>יצחק קצנלסון/ד''ר וייסלברגר</Name>
    <Longitude>34.852016</Longitude>
    <Latitude>32.284632</Latitude>
    <IsDeleted>False</IsDeleted>
    <IsRunningId>False</IsRunningId>
  </DAOStation>
  <DAOStation>
    <Id>39155</Id>
    <Code>39155</Code>
    <Name>רוטנברג\נורדאו</Name>
    <Longitude>34.854338</Longitude>
    <Latitude>32.279793</Latitude>
    <IsDeleted>False</IsDeleted>
    <IsRunningId>False</IsRunningId>
  </DAOStation>
  <DAOStation>
    <Id>39156</Id>
    <Code>39156</Code>
    <Name>פנחס לבון/ישראל בר יהודה</Name>
    <Longitude>34.854158</Longitude>
    <Latitude>32.283161</Latitude>
    <IsDeleted>False</IsDeleted>
    <IsRunningId>False</IsRunningId>
  </DAOStation>
  <DAOStation>
    <Id>39157</Id>
    <Code>39157</Code>
    <Name>השר ישראל בר יהודה/נורדאו</Name>
    <Longitude>34.856436</Longitude>
    <Latitude>32.281378</Latitude>
    <IsDeleted>False</IsDeleted>
    <IsRunningId>False</IsRunningId>
  </DAOStation>
  <DAOStation>
    <Id>39158</Id>
    <Code>39158</Code>
    <Name>מנדלי מוכר ספרים/נורדאו</Name>
    <Longitude>34.85734</Longitude>
    <Latitude>32.283807</Latitude>
    <IsDeleted>False</IsDeleted>
    <IsRunningId>False</IsRunningId>
  </DAOStation>
  <DAOStation>
    <Id>39160</Id>
    <Code>39160</Code>
    <Name>יצחק קצנלסון/שדרות פנחס לבון</Name>
    <Longitude>34.85359</Longitude>
    <Latitude>32.285573</Latitude>
    <IsDeleted>False</IsDeleted>
    <IsRunningId>False</IsRunningId>
  </DAOStation>
  <DAOStation>
    <Id>39161</Id>
    <Code>39161</Code>
    <Name>לבון/וייסלברגר תאודור</Name>
    <Longitude>34.854552</Longitude>
    <Latitude>32.285451</Latitude>
    <IsDeleted>False</IsDeleted>
    <IsRunningId>False</IsRunningId>
  </DAOStation>
  <DAOStation>
    <Id>39162</Id>
    <Code>39162</Code>
    <Name>שד. בן צבי/שד. פנחס לבון</Name>
    <Longitude>34.854833</Longitude>
    <Latitude>32.28675</Latitude>
    <IsDeleted>False</IsDeleted>
    <IsRunningId>False</IsRunningId>
  </DAOStation>
  <DAOStation>
    <Id>39163</Id>
    <Code>39163</Code>
    <Name>לבון/שלום עליכם</Name>
    <Longitude>34.855052</Longitude>
    <Latitude>32.286557</Latitude>
    <IsDeleted>False</IsDeleted>
    <IsRunningId>False</IsRunningId>
  </DAOStation>
  <DAOStation>
    <Id>39164</Id>
    <Code>39164</Code>
    <Name>הרב אבו חצירא/הרב רפאל אנקווה</Name>
    <Longitude>34.856197</Longitude>
    <Latitude>32.285705</Latitude>
    <IsDeleted>False</IsDeleted>
    <IsRunningId>False</IsRunningId>
  </DAOStation>
  <DAOStation>
    <Id>39166</Id>
    <Code>39166</Code>
    <Name>מרכז ביג/שדרות גיבורי ישראל</Name>
    <Longitude>34.859673</Longitude>
    <Latitude>32.276114</Latitude>
    <IsDeleted>False</IsDeleted>
    <IsRunningId>False</IsRunningId>
  </DAOStation>
  <DAOStation>
    <Id>39167</Id>
    <Code>39167</Code>
    <Name>שדרות גיבורי ישראל/הבונים</Name>
    <Longitude>34.860652</Longitude>
    <Latitude>32.279935</Latitude>
    <IsDeleted>False</IsDeleted>
    <IsRunningId>False</IsRunningId>
  </DAOStation>
  <DAOStation>
    <Id>39168</Id>
    <Code>39168</Code>
    <Name>שד. גיבורי ישראל/הבונים</Name>
    <Longitude>34.861197</Longitude>
    <Latitude>32.280886</Latitude>
    <IsDeleted>False</IsDeleted>
    <IsRunningId>False</IsRunningId>
  </DAOStation>
  <DAOStation>
    <Id>39170</Id>
    <Code>39170</Code>
    <Name>שד. גיבורי ישראל/התרופה</Name>
    <Longitude>34.861469</Longitude>
    <Latitude>32.282477</Latitude>
    <IsDeleted>False</IsDeleted>
    <IsRunningId>False</IsRunningId>
  </DAOStation>
  <DAOStation>
    <Id>39171</Id>
    <Code>39171</Code>
    <Name>שדרות גיבורי ישראל/האומנות</Name>
    <Longitude>34.860081</Longitude>
    <Latitude>32.277345</Latitude>
    <IsDeleted>False</IsDeleted>
    <IsRunningId>False</IsRunningId>
  </DAOStation>
  <DAOStation>
    <Id>39172</Id>
    <Code>39172</Code>
    <Name>האומנות/יד חרוצים</Name>
    <Longitude>34.863479</Longitude>
    <Latitude>32.278292</Latitude>
    <IsDeleted>False</IsDeleted>
    <IsRunningId>False</IsRunningId>
  </DAOStation>
  <DAOStation>
    <Id>39173</Id>
    <Code>39173</Code>
    <Name>ת.רכבת ספיר</Name>
    <Longitude>34.864471</Longitude>
    <Latitude>32.28034</Latitude>
    <IsDeleted>False</IsDeleted>
    <IsRunningId>False</IsRunningId>
  </DAOStation>
  <DAOStation>
    <Id>39174</Id>
    <Code>39174</Code>
    <Name>שדרות גיבורי ישראל/התרופה</Name>
    <Longitude>34.862011</Longitude>
    <Latitude>32.283436</Latitude>
    <IsDeleted>False</IsDeleted>
    <IsRunningId>False</IsRunningId>
  </DAOStation>
  <DAOStation>
    <Id>39175</Id>
    <Code>39175</Code>
    <Name>התרופה/אריה רגב</Name>
    <Longitude>34.863651</Longitude>
    <Latitude>32.282698</Latitude>
    <IsDeleted>False</IsDeleted>
    <IsRunningId>False</IsRunningId>
  </DAOStation>
  <DAOStation>
    <Id>39176</Id>
    <Code>39176</Code>
    <Name>יד חרוצים/השיאים</Name>
    <Longitude>34.865661</Longitude>
    <Latitude>32.2847</Latitude>
    <IsDeleted>False</IsDeleted>
    <IsRunningId>False</IsRunningId>
  </DAOStation>
  <DAOStation>
    <Id>39177</Id>
    <Code>39177</Code>
    <Name>בית חרושת טבע</Name>
    <Longitude>34.862489</Longitude>
    <Latitude>32.285635</Latitude>
    <IsDeleted>False</IsDeleted>
    <IsRunningId>False</IsRunningId>
  </DAOStation>
  <DAOStation>
    <Id>39178</Id>
    <Code>39178</Code>
    <Name>בית חרושת אביק</Name>
    <Longitude>34.862662</Longitude>
    <Latitude>32.285429</Latitude>
    <IsDeleted>False</IsDeleted>
    <IsRunningId>False</IsRunningId>
  </DAOStation>
  <DAOStation>
    <Id>39179</Id>
    <Code>39179</Code>
    <Name>הדרים/הראשונים</Name>
    <Longitude>34.931993</Longitude>
    <Latitude>32.264318</Latitude>
    <IsDeleted>False</IsDeleted>
    <IsRunningId>False</IsRunningId>
  </DAOStation>
  <DAOStation>
    <Id>39180</Id>
    <Code>39180</Code>
    <Name>שד. גיבורי ישראל/האומנות</Name>
    <Longitude>34.859914</Longitude>
    <Latitude>32.277657</Latitude>
    <IsDeleted>False</IsDeleted>
    <IsRunningId>False</IsRunningId>
  </DAOStation>
  <DAOStation>
    <Id>39181</Id>
    <Code>39181</Code>
    <Name>השלום\הגביש</Name>
    <Longitude>34.863673</Longitude>
    <Latitude>32.286298</Latitude>
    <IsDeleted>False</IsDeleted>
    <IsRunningId>False</IsRunningId>
  </DAOStation>
  <DAOStation>
    <Id>39182</Id>
    <Code>39182</Code>
    <Name>המחשב/הצורן</Name>
    <Longitude>34.86501</Longitude>
    <Latitude>32.287621</Latitude>
    <IsDeleted>False</IsDeleted>
    <IsRunningId>False</IsRunningId>
  </DAOStation>
  <DAOStation>
    <Id>39183</Id>
    <Code>39183</Code>
    <Name>עירייה</Name>
    <Longitude>34.86565</Longitude>
    <Latitude>32.28872</Latitude>
    <IsDeleted>False</IsDeleted>
    <IsRunningId>False</IsRunningId>
  </DAOStation>
  <DAOStation>
    <Id>39184</Id>
    <Code>39184</Code>
    <Name>יצחק גרינבוים/אפרים אלנקווה</Name>
    <Longitude>34.849667</Longitude>
    <Latitude>32.294995</Latitude>
    <IsDeleted>False</IsDeleted>
    <IsRunningId>False</IsRunningId>
  </DAOStation>
  <DAOStation>
    <Id>39185</Id>
    <Code>39185</Code>
    <Name>יצחק גרינבוים/ד''ר שמורק</Name>
    <Longitude>34.851791</Longitude>
    <Latitude>32.294705</Latitude>
    <IsDeleted>False</IsDeleted>
    <IsRunningId>False</IsRunningId>
  </DAOStation>
  <DAOStation>
    <Id>39186</Id>
    <Code>39186</Code>
    <Name>גרינבוים/בן צבי</Name>
    <Longitude>34.851985</Longitude>
    <Latitude>32.294485</Latitude>
    <IsDeleted>False</IsDeleted>
    <IsRunningId>False</IsRunningId>
  </DAOStation>
  <DAOStation>
    <Id>39187</Id>
    <Code>39187</Code>
    <Name>בן צבי/גרנבוים</Name>
    <Longitude>34.852491</Longitude>
    <Latitude>32.293898</Latitude>
    <IsDeleted>False</IsDeleted>
    <IsRunningId>False</IsRunningId>
  </DAOStation>
  <DAOStation>
    <Id>39188</Id>
    <Code>39188</Code>
    <Name>משטרה/בן צבי</Name>
    <Longitude>34.852932</Longitude>
    <Latitude>32.294922</Latitude>
    <IsDeleted>False</IsDeleted>
    <IsRunningId>False</IsRunningId>
  </DAOStation>
  <DAOStation>
    <Id>39189</Id>
    <Code>39189</Code>
    <Name>הנרייטה סולד/סטופ</Name>
    <Longitude>34.851774</Longitude>
    <Latitude>32.29569</Latitude>
    <IsDeleted>False</IsDeleted>
    <IsRunningId>False</IsRunningId>
  </DAOStation>
  <DAOStation>
    <Id>39190</Id>
    <Code>39190</Code>
    <Name>הנביאים/שד. בן צבי</Name>
    <Longitude>34.853099</Longitude>
    <Latitude>32.29686</Latitude>
    <IsDeleted>False</IsDeleted>
    <IsRunningId>False</IsRunningId>
  </DAOStation>
  <DAOStation>
    <Id>39191</Id>
    <Code>39191</Code>
    <Name>הנביאים/נצח ישראל</Name>
    <Longitude>34.85401</Longitude>
    <Latitude>32.297185</Latitude>
    <IsDeleted>False</IsDeleted>
    <IsRunningId>False</IsRunningId>
  </DAOStation>
  <DAOStation>
    <Id>39193</Id>
    <Code>39193</Code>
    <Name>שד. בן צבי/שמחה ארליך</Name>
    <Longitude>34.85357</Longitude>
    <Latitude>32.297873</Latitude>
    <IsDeleted>False</IsDeleted>
    <IsRunningId>False</IsRunningId>
  </DAOStation>
  <DAOStation>
    <Id>39194</Id>
    <Code>39194</Code>
    <Name>יחזקאל\הנביאים</Name>
    <Longitude>34.855518</Longitude>
    <Latitude>32.297381</Latitude>
    <IsDeleted>False</IsDeleted>
    <IsRunningId>False</IsRunningId>
  </DAOStation>
  <DAOStation>
    <Id>39195</Id>
    <Code>39195</Code>
    <Name>בן צבי/פלוגת מכבי</Name>
    <Longitude>34.853804</Longitude>
    <Latitude>32.300044</Latitude>
    <IsDeleted>False</IsDeleted>
    <IsRunningId>False</IsRunningId>
  </DAOStation>
  <DAOStation>
    <Id>39196</Id>
    <Code>39196</Code>
    <Name>בן צבי/נחום</Name>
    <Longitude>34.85428</Longitude>
    <Latitude>32.301071</Latitude>
    <IsDeleted>False</IsDeleted>
    <IsRunningId>False</IsRunningId>
  </DAOStation>
  <DAOStation>
    <Id>39197</Id>
    <Code>39197</Code>
    <Name>נחום/ישעיהו</Name>
    <Longitude>34.854651</Longitude>
    <Latitude>32.300595</Latitude>
    <IsDeleted>False</IsDeleted>
    <IsRunningId>False</IsRunningId>
  </DAOStation>
  <DAOStation>
    <Id>39198</Id>
    <Code>39198</Code>
    <Name>נחום/ישעיהו</Name>
    <Longitude>34.854938</Longitude>
    <Latitude>32.30046</Latitude>
    <IsDeleted>False</IsDeleted>
    <IsRunningId>False</IsRunningId>
  </DAOStation>
  <DAOStation>
    <Id>39199</Id>
    <Code>39199</Code>
    <Name>בית הכנסת הבוכרים/בן בוזי</Name>
    <Longitude>34.855673</Longitude>
    <Latitude>32.297593</Latitude>
    <IsDeleted>False</IsDeleted>
    <IsRunningId>False</IsRunningId>
  </DAOStation>
  <DAOStation>
    <Id>39200</Id>
    <Code>39200</Code>
    <Name>יחזקאל בן בוזי/נחום</Name>
    <Longitude>34.856236</Longitude>
    <Latitude>32.299615</Latitude>
    <IsDeleted>False</IsDeleted>
    <IsRunningId>False</IsRunningId>
  </DAOStation>
  <DAOStation>
    <Id>39201</Id>
    <Code>39201</Code>
    <Name>'יחזקאל/נחום א</Name>
    <Longitude>34.856413</Longitude>
    <Latitude>32.299807</Latitude>
    <IsDeleted>False</IsDeleted>
    <IsRunningId>False</IsRunningId>
  </DAOStation>
  <DAOStation>
    <Id>39203</Id>
    <Code>39203</Code>
    <Name>בן צבי/נחום</Name>
    <Longitude>34.854339</Longitude>
    <Latitude>32.302485</Latitude>
    <IsDeleted>False</IsDeleted>
    <IsRunningId>False</IsRunningId>
  </DAOStation>
  <DAOStation>
    <Id>39204</Id>
    <Code>39204</Code>
    <Name>בית ספר טשרניחובסקי/בן צבי</Name>
    <Longitude>34.854597</Longitude>
    <Latitude>32.309555</Latitude>
    <IsDeleted>False</IsDeleted>
    <IsRunningId>False</IsRunningId>
  </DAOStation>
  <DAOStation>
    <Id>39205</Id>
    <Code>39205</Code>
    <Name>בית ספר טשרניחובסקי/בן צבי</Name>
    <Longitude>34.854846</Longitude>
    <Latitude>32.309604</Latitude>
    <IsDeleted>False</IsDeleted>
    <IsRunningId>False</IsRunningId>
  </DAOStation>
  <DAOStation>
    <Id>39207</Id>
    <Code>39207</Code>
    <Name>מרכז גריאטרי דורות/הנביאים</Name>
    <Longitude>34.858045</Longitude>
    <Latitude>32.296945</Latitude>
    <IsDeleted>False</IsDeleted>
    <IsRunningId>False</IsRunningId>
  </DAOStation>
  <DAOStation>
    <Id>39208</Id>
    <Code>39208</Code>
    <Name>בן עמי/קניג</Name>
    <Longitude>34.84455</Longitude>
    <Latitude>32.310048</Latitude>
    <IsDeleted>False</IsDeleted>
    <IsRunningId>False</IsRunningId>
  </DAOStation>
  <DAOStation>
    <Id>39209</Id>
    <Code>39209</Code>
    <Name>שדרות בן עמי/צהלה</Name>
    <Longitude>34.845828</Longitude>
    <Latitude>32.313311</Latitude>
    <IsDeleted>False</IsDeleted>
    <IsRunningId>False</IsRunningId>
  </DAOStation>
  <DAOStation>
    <Id>39210</Id>
    <Code>39210</Code>
    <Name>בן עמי\צהלה</Name>
    <Longitude>34.845906</Longitude>
    <Latitude>32.314372</Latitude>
    <IsDeleted>False</IsDeleted>
    <IsRunningId>False</IsRunningId>
  </DAOStation>
  <DAOStation>
    <Id>39211</Id>
    <Code>39211</Code>
    <Name>שד. עובד בן עמי/ברוך רם</Name>
    <Longitude>34.846121</Longitude>
    <Latitude>32.316395</Latitude>
    <IsDeleted>False</IsDeleted>
    <IsRunningId>False</IsRunningId>
  </DAOStation>
  <DAOStation>
    <Id>39212</Id>
    <Code>39212</Code>
    <Name>ז'בוטינסקי/סמילנסקי</Name>
    <Longitude>34.848668</Longitude>
    <Latitude>32.321443</Latitude>
    <IsDeleted>False</IsDeleted>
    <IsRunningId>False</IsRunningId>
  </DAOStation>
  <DAOStation>
    <Id>39213</Id>
    <Code>39213</Code>
    <Name>שד. בן אב''י/הרעות</Name>
    <Longitude>34.848923</Longitude>
    <Latitude>32.319471</Latitude>
    <IsDeleted>False</IsDeleted>
    <IsRunningId>False</IsRunningId>
  </DAOStation>
  <DAOStation>
    <Id>39214</Id>
    <Code>39214</Code>
    <Name>ז'בוטינסקי/קרליבך</Name>
    <Longitude>34.849462</Longitude>
    <Latitude>32.324404</Latitude>
    <IsDeleted>False</IsDeleted>
    <IsRunningId>False</IsRunningId>
  </DAOStation>
  <DAOStation>
    <Id>39215</Id>
    <Code>39215</Code>
    <Name>בן צבי/הגר''א</Name>
    <Longitude>34.854911</Longitude>
    <Latitude>32.311076</Latitude>
    <IsDeleted>False</IsDeleted>
    <IsRunningId>False</IsRunningId>
  </DAOStation>
  <DAOStation>
    <Id>39216</Id>
    <Code>39216</Code>
    <Name>שד. בן צבי/היהלומן אברהם</Name>
    <Longitude>34.855105</Longitude>
    <Latitude>32.310926</Latitude>
    <IsDeleted>False</IsDeleted>
    <IsRunningId>False</IsRunningId>
  </DAOStation>
  <DAOStation>
    <Id>39217</Id>
    <Code>39217</Code>
    <Name>בית ספר טשרניחובסקי/הגר''א</Name>
    <Longitude>34.856482</Longitude>
    <Latitude>32.310378</Latitude>
    <IsDeleted>False</IsDeleted>
    <IsRunningId>False</IsRunningId>
  </DAOStation>
  <DAOStation>
    <Id>39218</Id>
    <Code>39218</Code>
    <Name>עובדיה בן שלום/שלום שבזי</Name>
    <Longitude>34.855772</Longitude>
    <Latitude>32.313369</Latitude>
    <IsDeleted>False</IsDeleted>
    <IsRunningId>False</IsRunningId>
  </DAOStation>
  <DAOStation>
    <Id>39220</Id>
    <Code>39220</Code>
    <Name>שד. בנימין/שלום שבזי</Name>
    <Longitude>34.85431</Longitude>
    <Latitude>32.315191</Latitude>
    <IsDeleted>False</IsDeleted>
    <IsRunningId>False</IsRunningId>
  </DAOStation>
  <DAOStation>
    <Id>39221</Id>
    <Code>39221</Code>
    <Name>שד. בנימין/הרב טביב</Name>
    <Longitude>34.854722</Longitude>
    <Latitude>32.315887</Latitude>
    <IsDeleted>False</IsDeleted>
    <IsRunningId>False</IsRunningId>
  </DAOStation>
  <DAOStation>
    <Id>39222</Id>
    <Code>39222</Code>
    <Name>שד. בן אב''י/שד. בנימין</Name>
    <Longitude>34.854885</Longitude>
    <Latitude>32.317684</Latitude>
    <IsDeleted>False</IsDeleted>
    <IsRunningId>False</IsRunningId>
  </DAOStation>
  <DAOStation>
    <Id>39223</Id>
    <Code>39223</Code>
    <Name>עובדיה בן שלום/רמב''ם</Name>
    <Longitude>34.856864</Longitude>
    <Latitude>32.315389</Latitude>
    <IsDeleted>False</IsDeleted>
    <IsRunningId>False</IsRunningId>
  </DAOStation>
  <DAOStation>
    <Id>39224</Id>
    <Code>39224</Code>
    <Name>עובדיה בן שלום/רמב''ם</Name>
    <Longitude>34.857335</Longitude>
    <Latitude>32.315897</Latitude>
    <IsDeleted>False</IsDeleted>
    <IsRunningId>False</IsRunningId>
  </DAOStation>
  <DAOStation>
    <Id>39225</Id>
    <Code>39225</Code>
    <Name>אליעזר בן יהודה/אברהם אבו שדיד</Name>
    <Longitude>34.851035</Longitude>
    <Latitude>32.319667</Latitude>
    <IsDeleted>False</IsDeleted>
    <IsRunningId>False</IsRunningId>
  </DAOStation>
  <DAOStation>
    <Id>39226</Id>
    <Code>39226</Code>
    <Name>סמילנסקי/ירמיהו הלפרין</Name>
    <Longitude>34.8497</Longitude>
    <Latitude>32.322012</Latitude>
    <IsDeleted>False</IsDeleted>
    <IsRunningId>False</IsRunningId>
  </DAOStation>
  <DAOStation>
    <Id>39228</Id>
    <Code>39228</Code>
    <Name>סמילנסקי/שדרות ירושלים</Name>
    <Longitude>34.852055</Longitude>
    <Latitude>32.324634</Latitude>
    <IsDeleted>False</IsDeleted>
    <IsRunningId>False</IsRunningId>
  </DAOStation>
  <DAOStation>
    <Id>39229</Id>
    <Code>39229</Code>
    <Name>דיזנגוף/ירושלים</Name>
    <Longitude>34.851932</Longitude>
    <Latitude>32.326185</Latitude>
    <IsDeleted>False</IsDeleted>
    <IsRunningId>False</IsRunningId>
  </DAOStation>
  <DAOStation>
    <Id>39230</Id>
    <Code>39230</Code>
    <Name>סמילנסקי/שד. ירושלים</Name>
    <Longitude>34.852771</Longitude>
    <Latitude>32.324914</Latitude>
    <IsDeleted>False</IsDeleted>
    <IsRunningId>False</IsRunningId>
  </DAOStation>
  <DAOStation>
    <Id>39231</Id>
    <Code>39231</Code>
    <Name>שדרות בן אב''י/שדרות בנימין</Name>
    <Longitude>34.85454</Longitude>
    <Latitude>32.318227</Latitude>
    <IsDeleted>False</IsDeleted>
    <IsRunningId>False</IsRunningId>
  </DAOStation>
  <DAOStation>
    <Id>39232</Id>
    <Code>39232</Code>
    <Name>שד. בן אב''י/שד. בנימין</Name>
    <Longitude>34.855357</Longitude>
    <Latitude>32.318437</Latitude>
    <IsDeleted>False</IsDeleted>
    <IsRunningId>False</IsRunningId>
  </DAOStation>
  <DAOStation>
    <Id>39233</Id>
    <Code>39233</Code>
    <Name>שד. בנימין/תחכמוני</Name>
    <Longitude>34.855471</Longitude>
    <Latitude>32.320059</Latitude>
    <IsDeleted>False</IsDeleted>
    <IsRunningId>False</IsRunningId>
  </DAOStation>
  <DAOStation>
    <Id>39234</Id>
    <Code>39234</Code>
    <Name>שד. בנימין/תחכמוני</Name>
    <Longitude>34.856082</Longitude>
    <Latitude>32.321473</Latitude>
    <IsDeleted>False</IsDeleted>
    <IsRunningId>False</IsRunningId>
  </DAOStation>
  <DAOStation>
    <Id>39235</Id>
    <Code>39235</Code>
    <Name>שד.ירושלים/שד. בנימין</Name>
    <Longitude>34.855526</Longitude>
    <Latitude>32.323668</Latitude>
    <IsDeleted>False</IsDeleted>
    <IsRunningId>False</IsRunningId>
  </DAOStation>
  <DAOStation>
    <Id>39236</Id>
    <Code>39236</Code>
    <Name>שד. בנימין/שד. ירושלים</Name>
    <Longitude>34.856728</Longitude>
    <Latitude>32.323959</Latitude>
    <IsDeleted>False</IsDeleted>
    <IsRunningId>False</IsRunningId>
  </DAOStation>
  <DAOStation>
    <Id>39237</Id>
    <Code>39237</Code>
    <Name>שד. בנימין/שד. ירושלים</Name>
    <Longitude>34.856548</Longitude>
    <Latitude>32.324201</Latitude>
    <IsDeleted>False</IsDeleted>
    <IsRunningId>False</IsRunningId>
  </DAOStation>
  <DAOStation>
    <Id>39238</Id>
    <Code>39238</Code>
    <Name>האר''י/הרב חרל''פ</Name>
    <Longitude>34.860947</Longitude>
    <Latitude>32.312226</Latitude>
    <IsDeleted>False</IsDeleted>
    <IsRunningId>False</IsRunningId>
  </DAOStation>
  <DAOStation>
    <Id>39239</Id>
    <Code>39239</Code>
    <Name>האר''י/דן שומרון</Name>
    <Longitude>34.860675</Longitude>
    <Latitude>32.312051</Latitude>
    <IsDeleted>False</IsDeleted>
    <IsRunningId>False</IsRunningId>
  </DAOStation>
  <DAOStation>
    <Id>39240</Id>
    <Code>39240</Code>
    <Name>פתח תקווה/אצ''ל</Name>
    <Longitude>34.857972</Longitude>
    <Latitude>32.317886</Latitude>
    <IsDeleted>False</IsDeleted>
    <IsRunningId>False</IsRunningId>
  </DAOStation>
  <DAOStation>
    <Id>39242</Id>
    <Code>39242</Code>
    <Name>פתח תקווה/בן אבי</Name>
    <Longitude>34.857753</Longitude>
    <Latitude>32.317978</Latitude>
    <IsDeleted>False</IsDeleted>
    <IsRunningId>False</IsRunningId>
  </DAOStation>
  <DAOStation>
    <Id>39243</Id>
    <Code>39243</Code>
    <Name>פתח תקווה/אפרים אהרונסון</Name>
    <Longitude>34.859639</Longitude>
    <Latitude>32.322091</Latitude>
    <IsDeleted>False</IsDeleted>
    <IsRunningId>False</IsRunningId>
  </DAOStation>
  <DAOStation>
    <Id>39244</Id>
    <Code>39244</Code>
    <Name>פתח תקווה/טיומקין</Name>
    <Longitude>34.859504</Longitude>
    <Latitude>32.321309</Latitude>
    <IsDeleted>False</IsDeleted>
    <IsRunningId>False</IsRunningId>
  </DAOStation>
  <DAOStation>
    <Id>39245</Id>
    <Code>39245</Code>
    <Name>פתח תקווה/החלוצים</Name>
    <Longitude>34.860642</Longitude>
    <Latitude>32.325907</Latitude>
    <IsDeleted>False</IsDeleted>
    <IsRunningId>False</IsRunningId>
  </DAOStation>
  <DAOStation>
    <Id>39246</Id>
    <Code>39246</Code>
    <Name>הרצל/עולי הגרדום</Name>
    <Longitude>34.864958</Longitude>
    <Latitude>32.325412</Latitude>
    <IsDeleted>False</IsDeleted>
    <IsRunningId>False</IsRunningId>
  </DAOStation>
  <DAOStation>
    <Id>39247</Id>
    <Code>39247</Code>
    <Name>הרצל/עולי הגרדום</Name>
    <Longitude>34.864841</Longitude>
    <Latitude>32.325694</Latitude>
    <IsDeleted>False</IsDeleted>
    <IsRunningId>False</IsRunningId>
  </DAOStation>
  <DAOStation>
    <Id>39248</Id>
    <Code>39248</Code>
    <Name>אוסישקין/שד. ירושלים</Name>
    <Longitude>34.851215</Longitude>
    <Latitude>32.326482</Latitude>
    <IsDeleted>False</IsDeleted>
    <IsRunningId>False</IsRunningId>
  </DAOStation>
  <DAOStation>
    <Id>39249</Id>
    <Code>39249</Code>
    <Name>אוסישקין/ראשון לציון</Name>
    <Longitude>34.851367</Longitude>
    <Latitude>32.329177</Latitude>
    <IsDeleted>False</IsDeleted>
    <IsRunningId>False</IsRunningId>
  </DAOStation>
  <DAOStation>
    <Id>39250</Id>
    <Code>39250</Code>
    <Name>דיזנגוף/דוד רמז</Name>
    <Longitude>34.852699</Longitude>
    <Latitude>32.32771</Latitude>
    <IsDeleted>False</IsDeleted>
    <IsRunningId>False</IsRunningId>
  </DAOStation>
  <DAOStation>
    <Id>39251</Id>
    <Code>39251</Code>
    <Name>כיכר העצמאות</Name>
    <Longitude>34.851149</Longitude>
    <Latitude>32.331073</Latitude>
    <IsDeleted>False</IsDeleted>
    <IsRunningId>False</IsRunningId>
  </DAOStation>
  <DAOStation>
    <Id>39252</Id>
    <Code>39252</Code>
    <Name>דיזנגוף/הרצל</Name>
    <Longitude>34.854308</Longitude>
    <Latitude>32.329606</Latitude>
    <IsDeleted>False</IsDeleted>
    <IsRunningId>False</IsRunningId>
  </DAOStation>
  <DAOStation>
    <Id>39253</Id>
    <Code>39253</Code>
    <Name>ששת הימים\ויצמן</Name>
    <Longitude>34.859631</Longitude>
    <Latitude>32.331575</Latitude>
    <IsDeleted>False</IsDeleted>
    <IsRunningId>False</IsRunningId>
  </DAOStation>
  <DAOStation>
    <Id>39254</Id>
    <Code>39254</Code>
    <Name>כיכר פרלמן</Name>
    <Longitude>34.856506</Longitude>
    <Latitude>32.332163</Latitude>
    <IsDeleted>False</IsDeleted>
    <IsRunningId>False</IsRunningId>
  </DAOStation>
  <DAOStation>
    <Id>39255</Id>
    <Code>39255</Code>
    <Name>דוד המלך/שד. ניצה</Name>
    <Longitude>34.852307</Longitude>
    <Latitude>32.334329</Latitude>
    <IsDeleted>False</IsDeleted>
    <IsRunningId>False</IsRunningId>
  </DAOStation>
  <DAOStation>
    <Id>39256</Id>
    <Code>39256</Code>
    <Name>בי''ס יהודה הנשיא</Name>
    <Longitude>34.854235</Longitude>
    <Latitude>32.337778</Latitude>
    <IsDeleted>False</IsDeleted>
    <IsRunningId>False</IsRunningId>
  </DAOStation>
  <DAOStation>
    <Id>39258</Id>
    <Code>39258</Code>
    <Name>אנדריוס/בורוכוב</Name>
    <Longitude>34.856207</Longitude>
    <Latitude>32.335749</Latitude>
    <IsDeleted>False</IsDeleted>
    <IsRunningId>False</IsRunningId>
  </DAOStation>
  <DAOStation>
    <Id>39259</Id>
    <Code>39259</Code>
    <Name>בורוכוב/יהודה הנשיא</Name>
    <Longitude>34.856468</Longitude>
    <Latitude>32.33777</Latitude>
    <IsDeleted>False</IsDeleted>
    <IsRunningId>False</IsRunningId>
  </DAOStation>
  <DAOStation>
    <Id>39260</Id>
    <Code>39260</Code>
    <Name>בורוכוב/יהודה הנשיא</Name>
    <Longitude>34.856332</Longitude>
    <Latitude>32.337985</Latitude>
    <IsDeleted>False</IsDeleted>
    <IsRunningId>False</IsRunningId>
  </DAOStation>
  <DAOStation>
    <Id>39261</Id>
    <Code>39261</Code>
    <Name>ד''ר יהושע טהון/ליאון רייך</Name>
    <Longitude>34.856594</Longitude>
    <Latitude>32.339815</Latitude>
    <IsDeleted>False</IsDeleted>
    <IsRunningId>False</IsRunningId>
  </DAOStation>
  <DAOStation>
    <Id>39262</Id>
    <Code>39262</Code>
    <Name>הרב הרצוג/שלמה המלך</Name>
    <Longitude>34.854239</Longitude>
    <Latitude>32.341132</Latitude>
    <IsDeleted>False</IsDeleted>
    <IsRunningId>False</IsRunningId>
  </DAOStation>
  <DAOStation>
    <Id>39263</Id>
    <Code>39263</Code>
    <Name>יהושע טהון/איכילוב</Name>
    <Longitude>34.856422</Longitude>
    <Latitude>32.339485</Latitude>
    <IsDeleted>False</IsDeleted>
    <IsRunningId>False</IsRunningId>
  </DAOStation>
  <DAOStation>
    <Id>39264</Id>
    <Code>39264</Code>
    <Name>יהושע טהון/הרצוג</Name>
    <Longitude>34.856578</Longitude>
    <Latitude>32.341076</Latitude>
    <IsDeleted>False</IsDeleted>
    <IsRunningId>False</IsRunningId>
  </DAOStation>
  <DAOStation>
    <Id>39265</Id>
    <Code>39265</Code>
    <Name>ד''ר יהושע טהון/הרב הרצוג</Name>
    <Longitude>34.856356</Longitude>
    <Latitude>32.341278</Latitude>
    <IsDeleted>False</IsDeleted>
    <IsRunningId>False</IsRunningId>
  </DAOStation>
  <DAOStation>
    <Id>39267</Id>
    <Code>39267</Code>
    <Name>ת. מרכזית נתניה</Name>
    <Longitude>34.858238</Longitude>
    <Latitude>32.327371</Latitude>
    <IsDeleted>False</IsDeleted>
    <IsRunningId>False</IsRunningId>
  </DAOStation>
  <DAOStation>
    <Id>39269</Id>
    <Code>39269</Code>
    <Name>ויצמן/הרצל</Name>
    <Longitude>34.858496</Longitude>
    <Latitude>32.328953</Latitude>
    <IsDeleted>False</IsDeleted>
    <IsRunningId>False</IsRunningId>
  </DAOStation>
  <DAOStation>
    <Id>39270</Id>
    <Code>39270</Code>
    <Name>שוק עירוני</Name>
    <Longitude>34.858976</Longitude>
    <Latitude>32.330186</Latitude>
    <IsDeleted>False</IsDeleted>
    <IsRunningId>False</IsRunningId>
  </DAOStation>
  <DAOStation>
    <Id>39271</Id>
    <Code>39271</Code>
    <Name>ויצמן/ששת הימים</Name>
    <Longitude>34.858841</Longitude>
    <Latitude>32.331154</Latitude>
    <IsDeleted>False</IsDeleted>
    <IsRunningId>False</IsRunningId>
  </DAOStation>
  <DAOStation>
    <Id>39272</Id>
    <Code>39272</Code>
    <Name>מלחמת ששת הימים/ישראל זנגוויל</Name>
    <Longitude>34.861524</Longitude>
    <Latitude>32.331518</Latitude>
    <IsDeleted>False</IsDeleted>
    <IsRunningId>False</IsRunningId>
  </DAOStation>
  <DAOStation>
    <Id>39273</Id>
    <Code>39273</Code>
    <Name>הרצל/מינץ</Name>
    <Longitude>34.862473</Longitude>
    <Latitude>32.326819</Latitude>
    <IsDeleted>False</IsDeleted>
    <IsRunningId>False</IsRunningId>
  </DAOStation>
  <DAOStation>
    <Id>39274</Id>
    <Code>39274</Code>
    <Name>הרצל/בנימין מינץ</Name>
    <Longitude>34.863338</Longitude>
    <Latitude>32.326176</Latitude>
    <IsDeleted>False</IsDeleted>
    <IsRunningId>False</IsRunningId>
  </DAOStation>
  <DAOStation>
    <Id>39275</Id>
    <Code>39275</Code>
    <Name>דרך רזיאל/היהלום</Name>
    <Longitude>34.861776</Longitude>
    <Latitude>32.329126</Latitude>
    <IsDeleted>False</IsDeleted>
    <IsRunningId>False</IsRunningId>
  </DAOStation>
  <DAOStation>
    <Id>39276</Id>
    <Code>39276</Code>
    <Name>דרך רזיאל/מלחמת ששת הימים</Name>
    <Longitude>34.863264</Longitude>
    <Latitude>32.331684</Latitude>
    <IsDeleted>False</IsDeleted>
    <IsRunningId>False</IsRunningId>
  </DAOStation>
  <DAOStation>
    <Id>39277</Id>
    <Code>39277</Code>
    <Name>דרך רזיאל/מלחמת ששת הימים</Name>
    <Longitude>34.86348</Longitude>
    <Latitude>32.331629</Latitude>
    <IsDeleted>False</IsDeleted>
    <IsRunningId>False</IsRunningId>
  </DAOStation>
  <DAOStation>
    <Id>39278</Id>
    <Code>39278</Code>
    <Name>הרב יצחק ניסנבוים/משה גליקסון</Name>
    <Longitude>34.865072</Longitude>
    <Latitude>32.33108</Latitude>
    <IsDeleted>False</IsDeleted>
    <IsRunningId>False</IsRunningId>
  </DAOStation>
  <DAOStation>
    <Id>39279</Id>
    <Code>39279</Code>
    <Name>דרך רזיאל/הרב ריינס</Name>
    <Longitude>34.864247</Longitude>
    <Latitude>32.33235</Latitude>
    <IsDeleted>False</IsDeleted>
    <IsRunningId>False</IsRunningId>
  </DAOStation>
  <DAOStation>
    <Id>39280</Id>
    <Code>39280</Code>
    <Name>דרך רזיאל/הרב ריינס</Name>
    <Longitude>34.865237</Longitude>
    <Latitude>32.333132</Latitude>
    <IsDeleted>False</IsDeleted>
    <IsRunningId>False</IsRunningId>
  </DAOStation>
  <DAOStation>
    <Id>39281</Id>
    <Code>39281</Code>
    <Name>י.ח. ברנר/שד. חיים וייצמן</Name>
    <Longitude>34.859208</Longitude>
    <Latitude>32.334658</Latitude>
    <IsDeleted>False</IsDeleted>
    <IsRunningId>False</IsRunningId>
  </DAOStation>
  <DAOStation>
    <Id>39282</Id>
    <Code>39282</Code>
    <Name>ויצמן\שפירא משה</Name>
    <Longitude>34.859411</Longitude>
    <Latitude>32.334382</Latitude>
    <IsDeleted>False</IsDeleted>
    <IsRunningId>False</IsRunningId>
  </DAOStation>
  <DAOStation>
    <Id>39283</Id>
    <Code>39283</Code>
    <Name>שדרות וייצמן/יהודה הנשיא</Name>
    <Longitude>34.859541</Longitude>
    <Latitude>32.337669</Latitude>
    <IsDeleted>False</IsDeleted>
    <IsRunningId>False</IsRunningId>
  </DAOStation>
  <DAOStation>
    <Id>39284</Id>
    <Code>39284</Code>
    <Name>וייצמן/שרת</Name>
    <Longitude>34.859784</Longitude>
    <Latitude>32.337702</Latitude>
    <IsDeleted>False</IsDeleted>
    <IsRunningId>False</IsRunningId>
  </DAOStation>
  <DAOStation>
    <Id>39285</Id>
    <Code>39285</Code>
    <Name>וייצמן/שרת</Name>
    <Longitude>34.859959</Longitude>
    <Latitude>32.339039</Latitude>
    <IsDeleted>False</IsDeleted>
    <IsRunningId>False</IsRunningId>
  </DAOStation>
  <DAOStation>
    <Id>39286</Id>
    <Code>39286</Code>
    <Name>וייצמן/איכילוב</Name>
    <Longitude>34.859845</Longitude>
    <Latitude>32.339836</Latitude>
    <IsDeleted>False</IsDeleted>
    <IsRunningId>False</IsRunningId>
  </DAOStation>
  <DAOStation>
    <Id>39287</Id>
    <Code>39287</Code>
    <Name>הרב הרצוג/שדרות חיים וייצמן</Name>
    <Longitude>34.86009</Longitude>
    <Latitude>32.341324</Latitude>
    <IsDeleted>False</IsDeleted>
    <IsRunningId>False</IsRunningId>
  </DAOStation>
  <DAOStation>
    <Id>39288</Id>
    <Code>39288</Code>
    <Name>שד.וייצמן/סוקולוב</Name>
    <Longitude>34.86033</Longitude>
    <Latitude>32.341515</Latitude>
    <IsDeleted>False</IsDeleted>
    <IsRunningId>False</IsRunningId>
  </DAOStation>
  <DAOStation>
    <Id>39289</Id>
    <Code>39289</Code>
    <Name>בית הבאר/נחום סוקולוב</Name>
    <Longitude>34.860981</Longitude>
    <Latitude>32.342087</Latitude>
    <IsDeleted>False</IsDeleted>
    <IsRunningId>False</IsRunningId>
  </DAOStation>
  <DAOStation>
    <Id>39291</Id>
    <Code>39291</Code>
    <Name>הרב ריינס/עמק חפר</Name>
    <Longitude>34.865621</Longitude>
    <Latitude>32.336476</Latitude>
    <IsDeleted>False</IsDeleted>
    <IsRunningId>False</IsRunningId>
  </DAOStation>
  <DAOStation>
    <Id>39292</Id>
    <Code>39292</Code>
    <Name>גולומב/טרומפלדור</Name>
    <Longitude>34.863344</Longitude>
    <Latitude>32.341185</Latitude>
    <IsDeleted>False</IsDeleted>
    <IsRunningId>False</IsRunningId>
  </DAOStation>
  <DAOStation>
    <Id>39293</Id>
    <Code>39293</Code>
    <Name>שרת/אליהו גולומב</Name>
    <Longitude>34.86404</Longitude>
    <Latitude>32.339896</Latitude>
    <IsDeleted>False</IsDeleted>
    <IsRunningId>False</IsRunningId>
  </DAOStation>
  <DAOStation>
    <Id>39294</Id>
    <Code>39294</Code>
    <Name>נחום סוקולוב/פייר ז'ילבר</Name>
    <Longitude>34.865289</Longitude>
    <Latitude>32.341611</Latitude>
    <IsDeleted>False</IsDeleted>
    <IsRunningId>False</IsRunningId>
  </DAOStation>
  <DAOStation>
    <Id>39295</Id>
    <Code>39295</Code>
    <Name>נחום סוקולוב/פייר ז'ילבר</Name>
    <Longitude>34.86566</Longitude>
    <Latitude>32.34141</Latitude>
    <IsDeleted>False</IsDeleted>
    <IsRunningId>False</IsRunningId>
  </DAOStation>
  <DAOStation>
    <Id>39296</Id>
    <Code>39296</Code>
    <Name>בית חולים לניאדו</Name>
    <Longitude>34.857721</Longitude>
    <Latitude>32.34622</Latitude>
    <IsDeleted>False</IsDeleted>
    <IsRunningId>False</IsRunningId>
  </DAOStation>
  <DAOStation>
    <Id>39297</Id>
    <Code>39297</Code>
    <Name>הגדוד העברי/דברי חיים</Name>
    <Longitude>34.857421</Longitude>
    <Latitude>32.34798</Latitude>
    <IsDeleted>False</IsDeleted>
    <IsRunningId>False</IsRunningId>
  </DAOStation>
  <DAOStation>
    <Id>39298</Id>
    <Code>39298</Code>
    <Name>אח''י דקר/דברי חיים</Name>
    <Longitude>34.857511</Longitude>
    <Latitude>32.34778</Latitude>
    <IsDeleted>False</IsDeleted>
    <IsRunningId>False</IsRunningId>
  </DAOStation>
  <DAOStation>
    <Id>39299</Id>
    <Code>39299</Code>
    <Name>הרב חי טייב/הרב מיימון</Name>
    <Longitude>34.857925</Longitude>
    <Latitude>32.34633</Latitude>
    <IsDeleted>False</IsDeleted>
    <IsRunningId>False</IsRunningId>
  </DAOStation>
  <DAOStation>
    <Id>39300</Id>
    <Code>39300</Code>
    <Name>הרב מיימון/מוריה</Name>
    <Longitude>34.860975</Longitude>
    <Latitude>32.345629</Latitude>
    <IsDeleted>False</IsDeleted>
    <IsRunningId>False</IsRunningId>
  </DAOStation>
  <DAOStation>
    <Id>39301</Id>
    <Code>39301</Code>
    <Name>הרב מיימון/מוריה</Name>
    <Longitude>34.860892</Longitude>
    <Latitude>32.345805</Latitude>
    <IsDeleted>False</IsDeleted>
    <IsRunningId>False</IsRunningId>
  </DAOStation>
  <DAOStation>
    <Id>39302</Id>
    <Code>39302</Code>
    <Name>הגפן\הגדוד העבר</Name>
    <Longitude>34.861079</Longitude>
    <Latitude>32.348002</Latitude>
    <IsDeleted>False</IsDeleted>
    <IsRunningId>False</IsRunningId>
  </DAOStation>
  <DAOStation>
    <Id>39303</Id>
    <Code>39303</Code>
    <Name>הגפן\החרוב</Name>
    <Longitude>34.861189</Longitude>
    <Latitude>32.34802</Latitude>
    <IsDeleted>False</IsDeleted>
    <IsRunningId>False</IsRunningId>
  </DAOStation>
  <DAOStation>
    <Id>39304</Id>
    <Code>39304</Code>
    <Name>הגפן/שד. עין התכלת</Name>
    <Longitude>34.861387</Longitude>
    <Latitude>32.349772</Latitude>
    <IsDeleted>False</IsDeleted>
    <IsRunningId>False</IsRunningId>
  </DAOStation>
  <DAOStation>
    <Id>39305</Id>
    <Code>39305</Code>
    <Name>הגפן/שד. עין התכלת</Name>
    <Longitude>34.861483</Longitude>
    <Latitude>32.349716</Latitude>
    <IsDeleted>False</IsDeleted>
    <IsRunningId>False</IsRunningId>
  </DAOStation>
  <DAOStation>
    <Id>39306</Id>
    <Code>39306</Code>
    <Name>קמיל הויסמנס/רבי עקיבא</Name>
    <Longitude>34.862124</Longitude>
    <Latitude>32.342521</Latitude>
    <IsDeleted>False</IsDeleted>
    <IsRunningId>False</IsRunningId>
  </DAOStation>
  <DAOStation>
    <Id>39307</Id>
    <Code>39307</Code>
    <Name>בלפור/קמיל הויסמנס</Name>
    <Longitude>34.86237</Longitude>
    <Latitude>32.344115</Latitude>
    <IsDeleted>False</IsDeleted>
    <IsRunningId>False</IsRunningId>
  </DAOStation>
  <DAOStation>
    <Id>39310</Id>
    <Code>39310</Code>
    <Name>הגפן/השקד</Name>
    <Longitude>34.862521</Longitude>
    <Latitude>32.351844</Latitude>
    <IsDeleted>False</IsDeleted>
    <IsRunningId>False</IsRunningId>
  </DAOStation>
  <DAOStation>
    <Id>39311</Id>
    <Code>39311</Code>
    <Name>הגפן/השקד</Name>
    <Longitude>34.862727</Longitude>
    <Latitude>32.3519</Latitude>
    <IsDeleted>False</IsDeleted>
    <IsRunningId>False</IsRunningId>
  </DAOStation>
  <DAOStation>
    <Id>39314</Id>
    <Code>39314</Code>
    <Name>צומת תל יצחק</Name>
    <Longitude>34.872795</Longitude>
    <Latitude>32.255564</Latitude>
    <IsDeleted>False</IsDeleted>
    <IsRunningId>False</IsRunningId>
  </DAOStation>
  <DAOStation>
    <Id>39316</Id>
    <Code>39316</Code>
    <Name>'כפר נטר א</Name>
    <Longitude>34.866013</Longitude>
    <Latitude>32.268611</Latitude>
    <IsDeleted>False</IsDeleted>
    <IsRunningId>False</IsRunningId>
  </DAOStation>
  <DAOStation>
    <Id>39317</Id>
    <Code>39317</Code>
    <Name>מרפאה</Name>
    <Longitude>34.868766</Longitude>
    <Latitude>32.269977</Latitude>
    <IsDeleted>False</IsDeleted>
    <IsRunningId>False</IsRunningId>
  </DAOStation>
  <DAOStation>
    <Id>39318</Id>
    <Code>39318</Code>
    <Name>ההדרים/החרוב</Name>
    <Longitude>34.873461</Longitude>
    <Latitude>32.273119</Latitude>
    <IsDeleted>False</IsDeleted>
    <IsRunningId>False</IsRunningId>
  </DAOStation>
  <DAOStation>
    <Id>39319</Id>
    <Code>39319</Code>
    <Name>ההדרים/סמטת החרוב</Name>
    <Longitude>34.874795</Longitude>
    <Latitude>32.276544</Latitude>
    <IsDeleted>False</IsDeleted>
    <IsRunningId>False</IsRunningId>
  </DAOStation>
  <DAOStation>
    <Id>39320</Id>
    <Code>39320</Code>
    <Name>ההדרים/עממי</Name>
    <Longitude>34.888347</Longitude>
    <Latitude>32.258078</Latitude>
    <IsDeleted>False</IsDeleted>
    <IsRunningId>False</IsRunningId>
  </DAOStation>
  <DAOStation>
    <Id>39321</Id>
    <Code>39321</Code>
    <Name>ההדרים/עממי</Name>
    <Longitude>34.888269</Longitude>
    <Latitude>32.258273</Latitude>
    <IsDeleted>False</IsDeleted>
    <IsRunningId>False</IsRunningId>
  </DAOStation>
  <DAOStation>
    <Id>39323</Id>
    <Code>39323</Code>
    <Name>השומרון/ותיקים</Name>
    <Longitude>34.88864</Longitude>
    <Latitude>32.26319</Latitude>
    <IsDeleted>False</IsDeleted>
    <IsRunningId>False</IsRunningId>
  </DAOStation>
  <DAOStation>
    <Id>39324</Id>
    <Code>39324</Code>
    <Name>השומרון/ותיקים</Name>
    <Longitude>34.887886</Longitude>
    <Latitude>32.263559</Latitude>
    <IsDeleted>False</IsDeleted>
    <IsRunningId>False</IsRunningId>
  </DAOStation>
  <DAOStation>
    <Id>39325</Id>
    <Code>39325</Code>
    <Name>ההדרים/הלוחמים</Name>
    <Longitude>34.88919</Longitude>
    <Latitude>32.260699</Latitude>
    <IsDeleted>False</IsDeleted>
    <IsRunningId>False</IsRunningId>
  </DAOStation>
  <DAOStation>
    <Id>39326</Id>
    <Code>39326</Code>
    <Name>ההדרים/הלוחמים</Name>
    <Longitude>34.889346</Longitude>
    <Latitude>32.260831</Latitude>
    <IsDeleted>False</IsDeleted>
    <IsRunningId>False</IsRunningId>
  </DAOStation>
  <DAOStation>
    <Id>39327</Id>
    <Code>39327</Code>
    <Name>המתמיד/הנוטע</Name>
    <Longitude>34.887143</Longitude>
    <Latitude>32.2672</Latitude>
    <IsDeleted>False</IsDeleted>
    <IsRunningId>False</IsRunningId>
  </DAOStation>
  <DAOStation>
    <Id>39328</Id>
    <Code>39328</Code>
    <Name>הנוטע/רקפות</Name>
    <Longitude>34.887052</Longitude>
    <Latitude>32.267152</Latitude>
    <IsDeleted>False</IsDeleted>
    <IsRunningId>False</IsRunningId>
  </DAOStation>
  <DAOStation>
    <Id>39329</Id>
    <Code>39329</Code>
    <Name>המייסדים/צבר</Name>
    <Longitude>34.885011</Longitude>
    <Latitude>32.269811</Latitude>
    <IsDeleted>False</IsDeleted>
    <IsRunningId>False</IsRunningId>
  </DAOStation>
  <DAOStation>
    <Id>39330</Id>
    <Code>39330</Code>
    <Name>מועצה מקומית</Name>
    <Longitude>34.888827</Longitude>
    <Latitude>32.269779</Latitude>
    <IsDeleted>False</IsDeleted>
    <IsRunningId>False</IsRunningId>
  </DAOStation>
  <DAOStation>
    <Id>39333</Id>
    <Code>39333</Code>
    <Name>העצמאות/נרקיסים</Name>
    <Longitude>34.88719</Longitude>
    <Latitude>32.274281</Latitude>
    <IsDeleted>False</IsDeleted>
    <IsRunningId>False</IsRunningId>
  </DAOStation>
  <DAOStation>
    <Id>39337</Id>
    <Code>39337</Code>
    <Name>כביש 4/תל צור</Name>
    <Longitude>34.895065</Longitude>
    <Latitude>32.275284</Latitude>
    <IsDeleted>False</IsDeleted>
    <IsRunningId>False</IsRunningId>
  </DAOStation>
  <DAOStation>
    <Id>39339</Id>
    <Code>39339</Code>
    <Name>כפר נטר הצעירה</Name>
    <Longitude>34.873008</Longitude>
    <Latitude>32.281311</Latitude>
    <IsDeleted>False</IsDeleted>
    <IsRunningId>False</IsRunningId>
  </DAOStation>
  <DAOStation>
    <Id>39340</Id>
    <Code>39340</Code>
    <Name>העצמאות/רימון</Name>
    <Longitude>34.891557</Longitude>
    <Latitude>32.281889</Latitude>
    <IsDeleted>False</IsDeleted>
    <IsRunningId>False</IsRunningId>
  </DAOStation>
  <DAOStation>
    <Id>39341</Id>
    <Code>39341</Code>
    <Name>כפר נטר הצעירה</Name>
    <Longitude>34.872602</Longitude>
    <Latitude>32.28174</Latitude>
    <IsDeleted>False</IsDeleted>
    <IsRunningId>False</IsRunningId>
  </DAOStation>
  <DAOStation>
    <Id>39342</Id>
    <Code>39342</Code>
    <Name>ההדרים/השלום</Name>
    <Longitude>34.875265</Longitude>
    <Latitude>32.278974</Latitude>
    <IsDeleted>False</IsDeleted>
    <IsRunningId>False</IsRunningId>
  </DAOStation>
  <DAOStation>
    <Id>39343</Id>
    <Code>39343</Code>
    <Name>האלון/ההדרים</Name>
    <Longitude>34.875047</Longitude>
    <Latitude>32.281095</Latitude>
    <IsDeleted>False</IsDeleted>
    <IsRunningId>False</IsRunningId>
  </DAOStation>
  <DAOStation>
    <Id>39345</Id>
    <Code>39345</Code>
    <Name>האלון/ההדרים</Name>
    <Longitude>34.876025</Longitude>
    <Latitude>32.28104</Latitude>
    <IsDeleted>False</IsDeleted>
    <IsRunningId>False</IsRunningId>
  </DAOStation>
  <DAOStation>
    <Id>39346</Id>
    <Code>39346</Code>
    <Name>פארק הבנים/הבנים</Name>
    <Longitude>34.880624</Longitude>
    <Latitude>32.281801</Latitude>
    <IsDeleted>False</IsDeleted>
    <IsRunningId>False</IsRunningId>
  </DAOStation>
  <DAOStation>
    <Id>39347</Id>
    <Code>39347</Code>
    <Name>גן הבנים/הבנים</Name>
    <Longitude>34.880927</Longitude>
    <Latitude>32.282129</Latitude>
    <IsDeleted>False</IsDeleted>
    <IsRunningId>False</IsRunningId>
  </DAOStation>
  <DAOStation>
    <Id>39348</Id>
    <Code>39348</Code>
    <Name>שדרות לנטוס/יוסף</Name>
    <Longitude>34.869407</Longitude>
    <Latitude>32.29696</Latitude>
    <IsDeleted>False</IsDeleted>
    <IsRunningId>False</IsRunningId>
  </DAOStation>
  <DAOStation>
    <Id>39349</Id>
    <Code>39349</Code>
    <Name>טום לנטוס/ליבר זאב</Name>
    <Longitude>34.86956</Longitude>
    <Latitude>32.300914</Latitude>
    <IsDeleted>False</IsDeleted>
    <IsRunningId>False</IsRunningId>
  </DAOStation>
  <DAOStation>
    <Id>39350</Id>
    <Code>39350</Code>
    <Name>דרך דגניה/בני וו.רייך</Name>
    <Longitude>34.873232</Longitude>
    <Latitude>32.295836</Latitude>
    <IsDeleted>False</IsDeleted>
    <IsRunningId>False</IsRunningId>
  </DAOStation>
  <DAOStation>
    <Id>39351</Id>
    <Code>39351</Code>
    <Name>דרך דגניה/ליבר זאב</Name>
    <Longitude>34.873394</Longitude>
    <Latitude>32.299918</Latitude>
    <IsDeleted>False</IsDeleted>
    <IsRunningId>False</IsRunningId>
  </DAOStation>
  <DAOStation>
    <Id>39352</Id>
    <Code>39352</Code>
    <Name>טום לנטוס/ד''ר יהודה פרח</Name>
    <Longitude>34.86967</Longitude>
    <Latitude>32.303634</Latitude>
    <IsDeleted>False</IsDeleted>
    <IsRunningId>False</IsRunningId>
  </DAOStation>
  <DAOStation>
    <Id>39355</Id>
    <Code>39355</Code>
    <Name>שפיגלמן/הגולן</Name>
    <Longitude>34.872856</Longitude>
    <Latitude>32.307611</Latitude>
    <IsDeleted>False</IsDeleted>
    <IsRunningId>False</IsRunningId>
  </DAOStation>
  <DAOStation>
    <Id>39356</Id>
    <Code>39356</Code>
    <Name>בית עלמין</Name>
    <Longitude>34.881391</Longitude>
    <Latitude>32.298762</Latitude>
    <IsDeleted>False</IsDeleted>
    <IsRunningId>False</IsRunningId>
  </DAOStation>
  <DAOStation>
    <Id>39357</Id>
    <Code>39357</Code>
    <Name>דגניה\קלויזנר</Name>
    <Longitude>34.874354</Longitude>
    <Latitude>32.306429</Latitude>
    <IsDeleted>False</IsDeleted>
    <IsRunningId>False</IsRunningId>
  </DAOStation>
  <DAOStation>
    <Id>39358</Id>
    <Code>39358</Code>
    <Name>דרך דגניה/פרופסור יוסף קלאוזנר</Name>
    <Longitude>34.874793</Longitude>
    <Latitude>32.307437</Latitude>
    <IsDeleted>False</IsDeleted>
    <IsRunningId>False</IsRunningId>
  </DAOStation>
  <DAOStation>
    <Id>39360</Id>
    <Code>39360</Code>
    <Name>מרכז דוד/דרך דגניה</Name>
    <Longitude>34.874746</Longitude>
    <Latitude>32.308448</Latitude>
    <IsDeleted>False</IsDeleted>
    <IsRunningId>False</IsRunningId>
  </DAOStation>
  <DAOStation>
    <Id>39361</Id>
    <Code>39361</Code>
    <Name>חורשת הסרג'נטים/האוניברסיטה</Name>
    <Longitude>34.877867</Longitude>
    <Latitude>32.306781</Latitude>
    <IsDeleted>False</IsDeleted>
    <IsRunningId>False</IsRunningId>
  </DAOStation>
  <DAOStation>
    <Id>39362</Id>
    <Code>39362</Code>
    <Name>הרטום/רות המואביה</Name>
    <Longitude>34.876499</Longitude>
    <Latitude>32.308907</Latitude>
    <IsDeleted>False</IsDeleted>
    <IsRunningId>False</IsRunningId>
  </DAOStation>
  <DAOStation>
    <Id>39364</Id>
    <Code>39364</Code>
    <Name>מכללת נתניה/החינוך העברי</Name>
    <Longitude>34.879312</Longitude>
    <Latitude>32.306937</Latitude>
    <IsDeleted>False</IsDeleted>
    <IsRunningId>False</IsRunningId>
  </DAOStation>
  <DAOStation>
    <Id>39365</Id>
    <Code>39365</Code>
    <Name>דרך הפארק/האוניברסיטה</Name>
    <Longitude>34.880625</Longitude>
    <Latitude>32.306208</Latitude>
    <IsDeleted>False</IsDeleted>
    <IsRunningId>False</IsRunningId>
  </DAOStation>
  <DAOStation>
    <Id>39366</Id>
    <Code>39366</Code>
    <Name>ההשכלה/האוניברסיטה</Name>
    <Longitude>34.880983</Longitude>
    <Latitude>32.307372</Latitude>
    <IsDeleted>False</IsDeleted>
    <IsRunningId>False</IsRunningId>
  </DAOStation>
  <DAOStation>
    <Id>39367</Id>
    <Code>39367</Code>
    <Name>ההשכלה/האוניברסיטה</Name>
    <Longitude>34.880771</Longitude>
    <Latitude>32.30755</Latitude>
    <IsDeleted>False</IsDeleted>
    <IsRunningId>False</IsRunningId>
  </DAOStation>
  <DAOStation>
    <Id>39368</Id>
    <Code>39368</Code>
    <Name>ההשכלה/הרב יהודה אונטרמן</Name>
    <Longitude>34.881223</Longitude>
    <Latitude>32.30888</Latitude>
    <IsDeleted>False</IsDeleted>
    <IsRunningId>False</IsRunningId>
  </DAOStation>
  <DAOStation>
    <Id>39369</Id>
    <Code>39369</Code>
    <Name>ההשכלה/הרב יהודה אונטרמן</Name>
    <Longitude>34.881158</Longitude>
    <Latitude>32.309305</Latitude>
    <IsDeleted>False</IsDeleted>
    <IsRunningId>False</IsRunningId>
  </DAOStation>
  <DAOStation>
    <Id>39370</Id>
    <Code>39370</Code>
    <Name>הבנים/המחתרת</Name>
    <Longitude>34.884816</Longitude>
    <Latitude>32.280259</Latitude>
    <IsDeleted>False</IsDeleted>
    <IsRunningId>False</IsRunningId>
  </DAOStation>
  <DAOStation>
    <Id>39371</Id>
    <Code>39371</Code>
    <Name>הבנים/מרבד הקסמים</Name>
    <Longitude>34.884985</Longitude>
    <Latitude>32.280217</Latitude>
    <IsDeleted>False</IsDeleted>
    <IsRunningId>False</IsRunningId>
  </DAOStation>
  <DAOStation>
    <Id>39372</Id>
    <Code>39372</Code>
    <Name>הבנים/סמטת הורדים</Name>
    <Longitude>34.888529</Longitude>
    <Latitude>32.278278</Latitude>
    <IsDeleted>False</IsDeleted>
    <IsRunningId>False</IsRunningId>
  </DAOStation>
  <DAOStation>
    <Id>39373</Id>
    <Code>39373</Code>
    <Name>הבנים/סמטת הורדים</Name>
    <Longitude>34.888535</Longitude>
    <Latitude>32.278373</Latitude>
    <IsDeleted>False</IsDeleted>
    <IsRunningId>False</IsRunningId>
  </DAOStation>
  <DAOStation>
    <Id>39374</Id>
    <Code>39374</Code>
    <Name>צומת הדסים</Name>
    <Longitude>34.896439</Longitude>
    <Latitude>32.28275</Latitude>
    <IsDeleted>False</IsDeleted>
    <IsRunningId>False</IsRunningId>
  </DAOStation>
  <DAOStation>
    <Id>39375</Id>
    <Code>39375</Code>
    <Name>צומת הדסים</Name>
    <Longitude>34.897286</Longitude>
    <Latitude>32.283196</Latitude>
    <IsDeleted>False</IsDeleted>
    <IsRunningId>False</IsRunningId>
  </DAOStation>
  <DAOStation>
    <Id>39376</Id>
    <Code>39376</Code>
    <Name>הברבור/הזמיר</Name>
    <Longitude>34.882232</Longitude>
    <Latitude>32.30399</Latitude>
    <IsDeleted>False</IsDeleted>
    <IsRunningId>False</IsRunningId>
  </DAOStation>
  <DAOStation>
    <Id>39377</Id>
    <Code>39377</Code>
    <Name>הזמיר/השחף</Name>
    <Longitude>34.882851</Longitude>
    <Latitude>32.306077</Latitude>
    <IsDeleted>False</IsDeleted>
    <IsRunningId>False</IsRunningId>
  </DAOStation>
  <DAOStation>
    <Id>39378</Id>
    <Code>39378</Code>
    <Name>הזמיר/הנשר</Name>
    <Longitude>34.882423</Longitude>
    <Latitude>32.306827</Latitude>
    <IsDeleted>False</IsDeleted>
    <IsRunningId>False</IsRunningId>
  </DAOStation>
  <DAOStation>
    <Id>39379</Id>
    <Code>39379</Code>
    <Name>דרך הלורד\אבני</Name>
    <Longitude>34.910543</Longitude>
    <Latitude>32.248347</Latitude>
    <IsDeleted>False</IsDeleted>
    <IsRunningId>False</IsRunningId>
  </DAOStation>
  <DAOStation>
    <Id>39380</Id>
    <Code>39380</Code>
    <Name>הורדים/יונק הדבש</Name>
    <Longitude>34.913161</Longitude>
    <Latitude>32.267569</Latitude>
    <IsDeleted>False</IsDeleted>
    <IsRunningId>False</IsRunningId>
  </DAOStation>
  <DAOStation>
    <Id>39381</Id>
    <Code>39381</Code>
    <Name>הארז/השיזף</Name>
    <Longitude>34.913567</Longitude>
    <Latitude>32.266731</Latitude>
    <IsDeleted>False</IsDeleted>
    <IsRunningId>False</IsRunningId>
  </DAOStation>
  <DAOStation>
    <Id>39382</Id>
    <Code>39382</Code>
    <Name>גורדון/כצנלסון</Name>
    <Longitude>34.9105</Longitude>
    <Latitude>32.272356</Latitude>
    <IsDeleted>False</IsDeleted>
    <IsRunningId>False</IsRunningId>
  </DAOStation>
  <DAOStation>
    <Id>39383</Id>
    <Code>39383</Code>
    <Name>יוספטל / מימון</Name>
    <Longitude>34.907677</Longitude>
    <Latitude>32.27471</Latitude>
    <IsDeleted>False</IsDeleted>
    <IsRunningId>False</IsRunningId>
  </DAOStation>
  <DAOStation>
    <Id>39384</Id>
    <Code>39384</Code>
    <Name>יאנוש קורצ'ק/יוספטל</Name>
    <Longitude>34.908497</Longitude>
    <Latitude>32.275943</Latitude>
    <IsDeleted>False</IsDeleted>
    <IsRunningId>False</IsRunningId>
  </DAOStation>
  <DAOStation>
    <Id>39386</Id>
    <Code>39386</Code>
    <Name>גורדון/ברנר</Name>
    <Longitude>34.909588</Longitude>
    <Latitude>32.273996</Latitude>
    <IsDeleted>False</IsDeleted>
    <IsRunningId>False</IsRunningId>
  </DAOStation>
  <DAOStation>
    <Id>39387</Id>
    <Code>39387</Code>
    <Name>גורדון/יאנוש קורצ'אק</Name>
    <Longitude>34.909654</Longitude>
    <Latitude>32.275772</Latitude>
    <IsDeleted>False</IsDeleted>
    <IsRunningId>False</IsRunningId>
  </DAOStation>
  <DAOStation>
    <Id>39388</Id>
    <Code>39388</Code>
    <Name>שד. יצחק בן צבי/יאנוש קורצ'אק</Name>
    <Longitude>34.910497</Longitude>
    <Latitude>32.275743</Latitude>
    <IsDeleted>False</IsDeleted>
    <IsRunningId>False</IsRunningId>
  </DAOStation>
  <DAOStation>
    <Id>39389</Id>
    <Code>39389</Code>
    <Name>ז'בוטינסקי/ההסתדרות</Name>
    <Longitude>34.91245</Longitude>
    <Latitude>32.268747</Latitude>
    <IsDeleted>False</IsDeleted>
    <IsRunningId>False</IsRunningId>
  </DAOStation>
  <DAOStation>
    <Id>39390</Id>
    <Code>39390</Code>
    <Name>אח''י דקר/ההסתדרות</Name>
    <Longitude>34.912325</Longitude>
    <Latitude>32.269922</Latitude>
    <IsDeleted>False</IsDeleted>
    <IsRunningId>False</IsRunningId>
  </DAOStation>
  <DAOStation>
    <Id>39391</Id>
    <Code>39391</Code>
    <Name>האלון/ההסתדרות</Name>
    <Longitude>34.912545</Longitude>
    <Latitude>32.270195</Latitude>
    <IsDeleted>False</IsDeleted>
    <IsRunningId>False</IsRunningId>
  </DAOStation>
  <DAOStation>
    <Id>39392</Id>
    <Code>39392</Code>
    <Name>שבזי/שד. יצחק בן צבי</Name>
    <Longitude>34.911703</Longitude>
    <Latitude>32.272628</Latitude>
    <IsDeleted>False</IsDeleted>
    <IsRunningId>False</IsRunningId>
  </DAOStation>
  <DAOStation>
    <Id>39393</Id>
    <Code>39393</Code>
    <Name>אח''י דקר/העורב</Name>
    <Longitude>34.913385</Longitude>
    <Latitude>32.269257</Latitude>
    <IsDeleted>False</IsDeleted>
    <IsRunningId>False</IsRunningId>
  </DAOStation>
  <DAOStation>
    <Id>39394</Id>
    <Code>39394</Code>
    <Name>מ''ג/ההסתדרות</Name>
    <Longitude>34.913327</Longitude>
    <Latitude>32.271478</Latitude>
    <IsDeleted>False</IsDeleted>
    <IsRunningId>False</IsRunningId>
  </DAOStation>
  <DAOStation>
    <Id>39395</Id>
    <Code>39395</Code>
    <Name>מ''ג/אלי כהן</Name>
    <Longitude>34.914331</Longitude>
    <Latitude>32.271388</Latitude>
    <IsDeleted>False</IsDeleted>
    <IsRunningId>False</IsRunningId>
  </DAOStation>
  <DAOStation>
    <Id>39396</Id>
    <Code>39396</Code>
    <Name>שבזי/סעדיה אבני</Name>
    <Longitude>34.913138</Longitude>
    <Latitude>32.273004</Latitude>
    <IsDeleted>False</IsDeleted>
    <IsRunningId>False</IsRunningId>
  </DAOStation>
  <DAOStation>
    <Id>39397</Id>
    <Code>39397</Code>
    <Name>שבזי/בר יהודה</Name>
    <Longitude>34.913549</Longitude>
    <Latitude>32.273334</Latitude>
    <IsDeleted>False</IsDeleted>
    <IsRunningId>False</IsRunningId>
  </DAOStation>
  <DAOStation>
    <Id>39398</Id>
    <Code>39398</Code>
    <Name>הדקל/הכלנית</Name>
    <Longitude>34.915812</Longitude>
    <Latitude>32.248511</Latitude>
    <IsDeleted>False</IsDeleted>
    <IsRunningId>False</IsRunningId>
  </DAOStation>
  <DAOStation>
    <Id>39399</Id>
    <Code>39399</Code>
    <Name>הדקל/הרקפת</Name>
    <Longitude>34.918202</Longitude>
    <Latitude>32.249961</Latitude>
    <IsDeleted>False</IsDeleted>
    <IsRunningId>False</IsRunningId>
  </DAOStation>
  <DAOStation>
    <Id>39400</Id>
    <Code>39400</Code>
    <Name>הדקל/הנרקיס</Name>
    <Longitude>34.918311</Longitude>
    <Latitude>32.252882</Latitude>
    <IsDeleted>False</IsDeleted>
    <IsRunningId>False</IsRunningId>
  </DAOStation>
  <DAOStation>
    <Id>39401</Id>
    <Code>39401</Code>
    <Name>הדקל/השקד</Name>
    <Longitude>34.920256</Longitude>
    <Latitude>32.256492</Latitude>
    <IsDeleted>False</IsDeleted>
    <IsRunningId>False</IsRunningId>
  </DAOStation>
  <DAOStation>
    <Id>39402</Id>
    <Code>39402</Code>
    <Name>הארז/הציפורים</Name>
    <Longitude>34.915282</Longitude>
    <Latitude>32.266482</Latitude>
    <IsDeleted>False</IsDeleted>
    <IsRunningId>False</IsRunningId>
  </DAOStation>
  <DAOStation>
    <Id>39403</Id>
    <Code>39403</Code>
    <Name>הארז/השלדג</Name>
    <Longitude>34.915906</Longitude>
    <Latitude>32.266374</Latitude>
    <IsDeleted>False</IsDeleted>
    <IsRunningId>False</IsRunningId>
  </DAOStation>
